[
    {
        "image_id": "N/A",
        "name": "A New Dawn of Skincare",
        "tier": "basic",
        "category": "N/A",
        "phone": "",
        "address": "N/A",
        "town": "N/A",
        "state_zip": "N/A",
        "hours": "N/A",
        "website": "N/A",
        "facebook": "N/A",
        "bio": "N/A",
        "established": "N/A",
        "amazon_tag": "werewolf3788-20",
        "full_location": "N/A, N/A, N/A"
    },
    {
        "image_id": "N/A",
        "name": "Abundant Life Assembly",
        "tier": "basic",
        "category": "N/A",
        "phone": "",
        "address": "N/A",
        "town": "N/A",
        "state_zip": "N/A",
        "hours": "N/A",
        "website": "N/A",
        "facebook": "N/A",
        "bio": "N/A",
        "established": "N/A",
        "amazon_tag": "werewolf3788-20",
        "full_location": "N/A, N/A, N/A"
    },
    {
        "image_id": "N/A",
        "name": "Ace Hardware Flora",
        "tier": "basic",
        "category": "N/A",
        "phone": "",
        "address": "N/A",
        "town": "N/A",
        "state_zip": "N/A",
        "hours": "N/A",
        "website": "N/A",
        "facebook": "N/A",
        "bio": "N/A",
        "established": "N/A",
        "amazon_tag": "werewolf3788-20",
        "full_location": "N/A, N/A, N/A"
    },
    {
        "image_id": "N/A",
        "name": "Advanced Drainage Systems (ADS)",
        "tier": "basic",
        "category": "N/A",
        "phone": "",
        "address": "N/A",
        "town": "N/A",
        "state_zip": "N/A",
        "hours": "N/A",
        "website": "N/A",
        "facebook": "N/A",
        "bio": "N/A",
        "established": "N/A",
        "amazon_tag": "werewolf3788-20",
        "full_location": "N/A, N/A, N/A"
    },
    {
        "image_id": "N/A",
        "name": "Agpro Inc (John Deere)",
        "tier": "basic",
        "category": "Agriculture",
        "phone": "6186654555",
        "address": "590 S Main St",
        "town": "Louisville",
        "state_zip": "IL 62858",
        "hours": "N/A",
        "website": "N/A",
        "facebook": "https://www.facebook.com/LouisvilleAmericanLegion",
        "bio": "N/A",
        "established": "https://www.facebook.com/AgProLouisville/",
        "amazon_tag": "werewolf3788-20",
        "full_location": "590 S Main St, Louisville, IL 62858"
    },
    {
        "image_id": "louisville-american-leagion",
        "name": "American Legion Post #914",
        "tier": "basic",
        "category": "Bars",
        "phone": "",
        "address": "N/A",
        "town": "N/A",
        "state_zip": "N/A",
        "hours": "N/A",
        "website": "N/A",
        "facebook": "N/A",
        "bio": "Louisville American Legion Post 914, Sons of the American Legion, American Legion Auxiliary, American Legion Riders",
        "established": "N/A",
        "amazon_tag": "werewolf3788-20",
        "full_location": "N/A, N/A, N/A"
    },
    {
        "image_id": "N/A",
        "name": "American Legion Post 914",
        "tier": "basic",
        "category": "N/A",
        "phone": "N/A",
        "address": "N/A",
        "town": "N/A",
        "state_zip": "N/A",
        "hours": "N/A",
        "website": "N/A",
        "facebook": "N/A",
        "bio": "N/A",
        "established": "N/A",
        "amazon_tag": "werewolf3788-20",
        "full_location": "N/A, N/A, N/A"
    },
    {
        "image_id": "N/A",
        "name": "1",
        "tier": "basic",
        "category": "N/A",
        "phone": "",
        "address": "201 E 2nd St",
        "town": "N/A",
        "state_zip": "IL 62839",
        "hours": "N/A",
        "website": "http://www.amyleerealty.com/",
        "facebook": "https://www.facebook.com/amyleerealtyflora",
        "bio": "N/A",
        "established": "N/A",
        "amazon_tag": "werewolf3788-20",
        "full_location": "201 E 2nd St, N/A, IL 62839"
    },
    {
        "image_id": "Amy-Lee-Realty",
        "name": "Amy Lee Realty, L.L.C.",
        "tier": "basic",
        "category": "N/A",
        "phone": "",
        "address": "N/A",
        "town": "N/A",
        "state_zip": "N/A",
        "hours": "N/A",
        "website": "N/A",
        "facebook": "N/A",
        "bio": "N/A",
        "established": "N/A",
        "amazon_tag": "werewolf3788-20",
        "full_location": "N/A, N/A, N/A"
    },
    {
        "image_id": "anco-steel-company",
        "name": "Anco Steel",
        "tier": "basic",
        "category": "N/A",
        "phone": "",
        "address": "N/A",
        "town": "N/A",
        "state_zip": "N/A",
        "hours": "N/A",
        "website": "N/A",
        "facebook": "N/A",
        "bio": "N/A",
        "established": "N/A",
        "amazon_tag": "werewolf3788-20",
        "full_location": "N/A, N/A, N/A"
    },
    {
        "image_id": "angela-florist",
        "name": "Angela's Village Florist",
        "tier": "premium",
        "category": "N/A",
        "phone": "",
        "address": "N/A",
        "town": "N/A",
        "state_zip": "N/A",
        "hours": "N/A",
        "website": "N/A",
        "facebook": "N/A",
        "bio": "N/A",
        "established": "N/A",
        "amazon_tag": "werewolf3788-20",
        "full_location": "N/A, N/A, N/A"
    },
    {
        "image_id": "N/A",
        "name": "Arby's Flora",
        "tier": "basic",
        "category": "N/A",
        "phone": "",
        "address": "N/A",
        "town": "N/A",
        "state_zip": "N/A",
        "hours": "N/A",
        "website": "N/A",
        "facebook": "N/A",
        "bio": "N/A",
        "established": "N/A",
        "amazon_tag": "werewolf3788-20",
        "full_location": "N/A, N/A, N/A"
    },
    {
        "image_id": "N/A",
        "name": "Assembly of God",
        "tier": "basic",
        "category": "N/A",
        "phone": "",
        "address": "N/A",
        "town": "N/A",
        "state_zip": "N/A",
        "hours": "N/A",
        "website": "N/A",
        "facebook": "N/A",
        "bio": "N/A",
        "established": "N/A",
        "amazon_tag": "werewolf3788-20",
        "full_location": "N/A, N/A, N/A"
    },
    {
        "image_id": "N/A",
        "name": "Atkinson Trucking",
        "tier": "basic",
        "category": "N/A",
        "phone": "",
        "address": "N/A",
        "town": "N/A",
        "state_zip": "N/A",
        "hours": "N/A",
        "website": "N/A",
        "facebook": "N/A",
        "bio": "N/A",
        "established": "N/A",
        "amazon_tag": "werewolf3788-20",
        "full_location": "N/A, N/A, N/A"
    },
    {
        "image_id": "N/A",
        "name": "Aupperle Construction",
        "tier": "basic",
        "category": "N/A",
        "phone": "",
        "address": "N/A",
        "town": "N/A",
        "state_zip": "N/A",
        "hours": "N/A",
        "website": "N/A",
        "facebook": "N/A",
        "bio": "N/A",
        "established": "N/A",
        "amazon_tag": "werewolf3788-20",
        "full_location": "N/A, N/A, N/A"
    },
    {
        "image_id": "N/A",
        "name": "Axiom Gardens of Flora",
        "tier": "basic",
        "category": "N/A",
        "phone": "",
        "address": "N/A",
        "town": "N/A",
        "state_zip": "N/A",
        "hours": "N/A",
        "website": "N/A",
        "facebook": "N/A",
        "bio": "N/A",
        "established": "https://www.facebook.com/AxiomHealthcareFlora/",
        "amazon_tag": "werewolf3788-20",
        "full_location": "N/A, N/A, N/A"
    },
    {
        "image_id": "N/A",
        "name": "B & L Machine & Design",
        "tier": "basic",
        "category": "N/A",
        "phone": "",
        "address": "N/A",
        "town": "N/A",
        "state_zip": "N/A",
        "hours": "N/A",
        "website": "N/A",
        "facebook": "N/A",
        "bio": "N/A",
        "established": "N/A",
        "amazon_tag": "werewolf3788-20",
        "full_location": "N/A, N/A, N/A"
    },
    {
        "image_id": "N/A",
        "name": "B G Distributors",
        "tier": "basic",
        "category": "N/A",
        "phone": "",
        "address": "N/A",
        "town": "N/A",
        "state_zip": "N/A",
        "hours": "N/A",
        "website": "N/A",
        "facebook": "N/A",
        "bio": "N/A",
        "established": "N/A",
        "amazon_tag": "werewolf3788-20",
        "full_location": "N/A, N/A, N/A"
    },
    {
        "image_id": "N/A",
        "name": "Back Alley Bar-B-Q",
        "tier": "basic",
        "category": "N/A",
        "phone": "",
        "address": "N/A",
        "town": "N/A",
        "state_zip": "N/A",
        "hours": "N/A",
        "website": "N/A",
        "facebook": "N/A",
        "bio": "N/A",
        "established": "N/A",
        "amazon_tag": "werewolf3788-20",
        "full_location": "N/A, N/A, N/A"
    },
    {
        "image_id": "N/A",
        "name": "Backyard BBQ & Smokehouse",
        "tier": "basic",
        "category": "N/A",
        "phone": "",
        "address": "N/A",
        "town": "N/A",
        "state_zip": "N/A",
        "hours": "N/A",
        "website": "N/A",
        "facebook": "N/A",
        "bio": "N/A",
        "established": "https://www.facebook.com/BackyardBBQClayCity/",
        "amazon_tag": "werewolf3788-20",
        "full_location": "N/A, N/A, N/A"
    },
    {
        "image_id": "N/A",
        "name": "Bailey Family Farm",
        "tier": "basic",
        "category": "N/A",
        "phone": "",
        "address": "N/A",
        "town": "N/A",
        "state_zip": "N/A",
        "hours": "N/A",
        "website": "N/A",
        "facebook": "N/A",
        "bio": "N/A",
        "established": "N/A",
        "amazon_tag": "werewolf3788-20",
        "full_location": "N/A, N/A, N/A"
    },
    {
        "image_id": "N/A",
        "name": "Bailey's Electric Service",
        "tier": "basic",
        "category": "N/A",
        "phone": "",
        "address": "N/A",
        "town": "N/A",
        "state_zip": "N/A",
        "hours": "N/A",
        "website": "N/A",
        "facebook": "N/A",
        "bio": "N/A",
        "established": "N/A",
        "amazon_tag": "werewolf3788-20",
        "full_location": "N/A, N/A, N/A"
    },
    {
        "image_id": "N/A",
        "name": "Bargain Barn",
        "tier": "basic",
        "category": "N/A",
        "phone": "6186623011",
        "address": "1508 N State Rd, Flora, IL 62839",
        "town": "N/A",
        "state_zip": "Lodging",
        "hours": "N/A",
        "website": "N/A",
        "facebook": "bestwestern.com",
        "bio": "N/A",
        "established": "N/A",
        "amazon_tag": "werewolf3788-20",
        "full_location": "1508 N State Rd, Flora, IL 62839, N/A, Lodging"
    },
    {
        "image_id": "N/A",
        "name": "Best Western Flora Inn",
        "tier": "basic",
        "category": "N/A",
        "phone": "",
        "address": "N/A",
        "town": "N/A",
        "state_zip": "N/A",
        "hours": "N/A",
        "website": "N/A",
        "facebook": "N/A",
        "bio": "N/A",
        "established": "N/A",
        "amazon_tag": "werewolf3788-20",
        "full_location": "N/A, N/A, N/A"
    },
    {
        "image_id": "N/A",
        "name": "Bible Grove Christian Church",
        "tier": "basic",
        "category": "N/A",
        "phone": "",
        "address": "N/A",
        "town": "N/A",
        "state_zip": "N/A",
        "hours": "N/A",
        "website": "N/A",
        "facebook": "N/A",
        "bio": "N/A",
        "established": "https://www.facebook.com/BibleGroveChristian/",
        "amazon_tag": "werewolf3788-20",
        "full_location": "N/A, N/A, N/A"
    },
    {
        "image_id": "N/A",
        "name": "Bible Grove Community Hall",
        "tier": "basic",
        "category": "N/A",
        "phone": "",
        "address": "N/A",
        "town": "N/A",
        "state_zip": "N/A",
        "hours": "N/A",
        "website": "N/A",
        "facebook": "N/A",
        "bio": "N/A",
        "established": "N/A",
        "amazon_tag": "werewolf3788-20",
        "full_location": "N/A, N/A, N/A"
    },
    {
        "image_id": "N/A",
        "name": "Bible Grove Township Garage",
        "tier": "basic",
        "category": "N/A",
        "phone": "",
        "address": "N/A",
        "town": "N/A",
        "state_zip": "N/A",
        "hours": "N/A",
        "website": "N/A",
        "facebook": "N/A",
        "bio": "N/A",
        "established": "N/A",
        "amazon_tag": "werewolf3788-20",
        "full_location": "N/A, N/A, N/A"
    },
    {
        "image_id": "N/A",
        "name": "Bible Grove Township Hall",
        "tier": "basic",
        "category": "N/A",
        "phone": "",
        "address": "N/A",
        "town": "N/A",
        "state_zip": "N/A",
        "hours": "N/A",
        "website": "N/A",
        "facebook": "N/A",
        "bio": "N/A",
        "established": "N/A",
        "amazon_tag": "werewolf3788-20",
        "full_location": "N/A, N/A, N/A"
    },
    {
        "image_id": "N/A",
        "name": "Bible Pork Inc",
        "tier": "basic",
        "category": "N/A",
        "phone": "",
        "address": "N/A",
        "town": "N/A",
        "state_zip": "N/A",
        "hours": "N/A",
        "website": "N/A",
        "facebook": "N/A",
        "bio": "N/A",
        "established": "N/A",
        "amazon_tag": "werewolf3788-20",
        "full_location": "N/A, N/A, N/A"
    },
    {
        "image_id": "N/A",
        "name": "Biblical Baptist Church",
        "tier": "basic",
        "category": "N/A",
        "phone": "6186761222",
        "address": "910 S Main St, Clay City, IL 62824",
        "town": "N/A",
        "state_zip": "Services",
        "hours": "N/A",
        "website": "N/A",
        "facebook": "N/A",
        "bio": "N/A",
        "established": "N/A",
        "amazon_tag": "werewolf3788-20",
        "full_location": "910 S Main St, Clay City, IL 62824, N/A, Services"
    },
    {
        "image_id": "big-4-propane",
        "name": "Big 4 Propane",
        "tier": "basic",
        "category": "N/A",
        "phone": "",
        "address": "N/A",
        "town": "N/A",
        "state_zip": "N/A",
        "hours": "N/A",
        "website": "N/A",
        "facebook": "N/A",
        "bio": "N/A",
        "established": "N/A",
        "amazon_tag": "werewolf3788-20",
        "full_location": "N/A, N/A, N/A"
    },
    {
        "image_id": "N/A",
        "name": "Billy J Peterman Farming",
        "tier": "basic",
        "category": "N/A",
        "phone": "",
        "address": "N/A",
        "town": "N/A",
        "state_zip": "N/A",
        "hours": "N/A",
        "website": "N/A",
        "facebook": "N/A",
        "bio": "N/A",
        "established": "N/A",
        "amazon_tag": "werewolf3788-20",
        "full_location": "N/A, N/A, N/A"
    },
    {
        "image_id": "N/A",
        "name": "Blair Township",
        "tier": "basic",
        "category": "N/A",
        "phone": "",
        "address": "N/A",
        "town": "N/A",
        "state_zip": "N/A",
        "hours": "N/A",
        "website": "N/A",
        "facebook": "N/A",
        "bio": "N/A",
        "established": "N/A",
        "amazon_tag": "werewolf3788-20",
        "full_location": "N/A, N/A, N/A"
    },
    {
        "image_id": "N/A",
        "name": "Blair Township Hall",
        "tier": "basic",
        "category": "N/A",
        "phone": "",
        "address": "N/A",
        "town": "N/A",
        "state_zip": "N/A",
        "hours": "N/A",
        "website": "N/A",
        "facebook": "N/A",
        "bio": "N/A",
        "established": "N/A",
        "amazon_tag": "werewolf3788-20",
        "full_location": "N/A, N/A, N/A"
    },
    {
        "image_id": "N/A",
        "name": "Blair Township Maintenance",
        "tier": "basic",
        "category": "N/A",
        "phone": "",
        "address": "N/A",
        "town": "N/A",
        "state_zip": "N/A",
        "hours": "N/A",
        "website": "N/A",
        "facebook": "N/A",
        "bio": "N/A",
        "established": "N/A",
        "amazon_tag": "werewolf3788-20",
        "full_location": "N/A, N/A, N/A"
    },
    {
        "image_id": "N/A",
        "name": "Blue Mound Christian Church",
        "tier": "basic",
        "category": "N/A",
        "phone": "",
        "address": "N/A",
        "town": "N/A",
        "state_zip": "N/A",
        "hours": "N/A",
        "website": "N/A",
        "facebook": "N/A",
        "bio": "N/A",
        "established": "https://www.facebook.com/BlueMoundChurch/",
        "amazon_tag": "werewolf3788-20",
        "full_location": "N/A, N/A, N/A"
    },
    {
        "image_id": "N/A",
        "name": "Bob & Angie's Kitchen",
        "tier": "basic",
        "category": "N/A",
        "phone": "",
        "address": "N/A",
        "town": "N/A",
        "state_zip": "N/A",
        "hours": "N/A",
        "website": "N/A",
        "facebook": "N/A",
        "bio": "N/A",
        "established": "N/A",
        "amazon_tag": "werewolf3788-20",
        "full_location": "N/A, N/A, N/A"
    },
    {
        "image_id": "N/A",
        "name": "Bowen Plumbing & Heating",
        "tier": "basic",
        "category": "N/A",
        "phone": "",
        "address": "N/A",
        "town": "N/A",
        "state_zip": "N/A",
        "hours": "N/A",
        "website": "N/A",
        "facebook": "N/A",
        "bio": "N/A",
        "established": "N/A",
        "amazon_tag": "werewolf3788-20",
        "full_location": "N/A, N/A, N/A"
    },
    {
        "image_id": "N/A",
        "name": "Bright Beginnings Daycare",
        "tier": "basic",
        "category": "N/A",
        "phone": "",
        "address": "N/A",
        "town": "N/A",
        "state_zip": "N/A",
        "hours": "N/A",
        "website": "N/A",
        "facebook": "N/A",
        "bio": "N/A",
        "established": "https://www.facebook.com/BrightBeginningsFlora/",
        "amazon_tag": "werewolf3788-20",
        "full_location": "N/A, N/A, N/A"
    },
    {
        "image_id": "N/A",
        "name": "Briscoe Surplus Sales",
        "tier": "basic",
        "category": "N/A",
        "phone": "",
        "address": "N/A",
        "town": "N/A",
        "state_zip": "N/A",
        "hours": "N/A",
        "website": "N/A",
        "facebook": "N/A",
        "bio": "N/A",
        "established": "https://www.facebook.com/BriscoeSurplus/",
        "amazon_tag": "werewolf3788-20",
        "full_location": "N/A, N/A, N/A"
    },
    {
        "image_id": "N/A",
        "name": "Britt D Bailey Farming",
        "tier": "basic",
        "category": "N/A",
        "phone": "",
        "address": "N/A",
        "town": "N/A",
        "state_zip": "N/A",
        "hours": "N/A",
        "website": "N/A",
        "facebook": "N/A",
        "bio": "N/A",
        "established": "N/A",
        "amazon_tag": "werewolf3788-20",
        "full_location": "N/A, N/A, N/A"
    },
    {
        "image_id": "N/A",
        "name": "Brooks Mechanical",
        "tier": "basic",
        "category": "N/A",
        "phone": "",
        "address": "N/A",
        "town": "N/A",
        "state_zip": "N/A",
        "hours": "N/A",
        "website": "N/A",
        "facebook": "N/A",
        "bio": "N/A",
        "established": "https://www.facebook.com/BrooksMechanicalFlora/",
        "amazon_tag": "werewolf3788-20",
        "full_location": "N/A, N/A, N/A"
    },
    {
        "image_id": "N/A",
        "name": "Brown's Furniture",
        "tier": "basic",
        "category": "N/A",
        "phone": "",
        "address": "N/A",
        "town": "N/A",
        "state_zip": "N/A",
        "hours": "N/A",
        "website": "N/A",
        "facebook": "N/A",
        "bio": "N/A",
        "established": "https://www.facebook.com/BrownsFurnitureFlora/",
        "amazon_tag": "werewolf3788-20",
        "full_location": "N/A, N/A, N/A"
    },
    {
        "image_id": "N/A",
        "name": "Brummet's Plumbing & Heating",
        "tier": "basic",
        "category": "N/A",
        "phone": "",
        "address": "N/A",
        "town": "N/A",
        "state_zip": "N/A",
        "hours": "N/A",
        "website": "N/A",
        "facebook": "N/A",
        "bio": "N/A",
        "established": "N/A",
        "amazon_tag": "werewolf3788-20",
        "full_location": "N/A, N/A, N/A"
    },
    {
        "image_id": "N/A",
        "name": "Bryan R Land Farming",
        "tier": "basic",
        "category": "N/A",
        "phone": "6186624411",
        "address": "1401 N State Rd, Flora, IL 62839",
        "town": "N/A",
        "state_zip": "Automotive",
        "hours": "N/A",
        "website": "N/A",
        "facebook": "N/A",
        "bio": "N/A",
        "established": "N/A",
        "amazon_tag": "werewolf3788-20",
        "full_location": "1401 N State Rd, Flora, IL 62839, N/A, Automotive"
    },
    {
        "image_id": "N/A",
        "name": "Bryan's Auto Repair",
        "tier": "basic",
        "category": "N/A",
        "phone": "",
        "address": "N/A",
        "town": "N/A",
        "state_zip": "N/A",
        "hours": "N/A",
        "website": "N/A",
        "facebook": "N/A",
        "bio": "N/A",
        "established": "N/A",
        "amazon_tag": "werewolf3788-20",
        "full_location": "N/A, N/A, N/A"
    },
    {
        "image_id": "N/A",
        "name": "Bull Construction & Roofing LLC",
        "tier": "basic",
        "category": "N/A",
        "phone": "",
        "address": "N/A",
        "town": "N/A",
        "state_zip": "N/A",
        "hours": "N/A",
        "website": "N/A",
        "facebook": "N/A",
        "bio": "N/A",
        "established": "N/A",
        "amazon_tag": "werewolf3788-20",
        "full_location": "N/A, N/A, N/A"
    },
    {
        "image_id": "N/A",
        "name": "Burger King Flora",
        "tier": "basic",
        "category": "N/A",
        "phone": "",
        "address": "N/A",
        "town": "N/A",
        "state_zip": "N/A",
        "hours": "N/A",
        "website": "N/A",
        "facebook": "N/A",
        "bio": "N/A",
        "established": "N/A",
        "amazon_tag": "werewolf3788-20",
        "full_location": "N/A, N/A, N/A"
    },
    {
        "image_id": "butcher-automotive",
        "name": "Butcher Automotive",
        "tier": "basic",
        "category": "N/A",
        "phone": "",
        "address": "N/A",
        "town": "N/A",
        "state_zip": "N/A",
        "hours": "N/A",
        "website": "N/A",
        "facebook": "N/A",
        "bio": "N/A",
        "established": "https://www.facebook.com/ButcherAutomotive/",
        "amazon_tag": "werewolf3788-20",
        "full_location": "N/A, N/A, N/A"
    },
    {
        "image_id": "N/A",
        "name": "C & C Body Shop",
        "tier": "basic",
        "category": "N/A",
        "phone": "",
        "address": "N/A",
        "town": "N/A",
        "state_zip": "N/A",
        "hours": "N/A",
        "website": "N/A",
        "facebook": "N/A",
        "bio": "N/A",
        "established": "N/A",
        "amazon_tag": "werewolf3788-20",
        "full_location": "N/A, N/A, N/A"
    },
    {
        "image_id": "N/A",
        "name": "Calvary Apostolic Tabernacle",
        "tier": "basic",
        "category": "N/A",
        "phone": "",
        "address": "211 W Broadway",
        "town": "N/A",
        "state_zip": "IL 62838",
        "hours": "Wednesday, 7\u00e2\u0080\u00938:30\u00e2\u0080\u00afPM Sunday, 10\u00e2\u0080\u00afAM\u00e2\u0080\u009312\u00e2\u0080\u00afPM",
        "website": "https://www.calvaryapostolictabiola.org/",
        "facebook": "https://maps.app.goo.gl/1qTrkSJHMNRBZmBZ8",
        "bio": "N/A",
        "established": "N/A",
        "amazon_tag": "werewolf3788-20",
        "full_location": "211 W Broadway, N/A, IL 62838"
    },
    {
        "image_id": "N/A",
        "name": "Calvary Apostolic Tabernacle",
        "tier": "basic",
        "category": "N/A",
        "phone": "",
        "address": "N/A",
        "town": "N/A",
        "state_zip": "N/A",
        "hours": "Wednesday, 7\u00e2\u0080\u00938:30\u00e2\u0080\u00afPM Sunday, 10\u00e2\u0080\u00afAM\u00e2\u0080\u009312\u00e2\u0080\u00afPM",
        "website": "N/A",
        "facebook": "N/A",
        "bio": "N/A",
        "established": "N/A",
        "amazon_tag": "werewolf3788-20",
        "full_location": "N/A, N/A, N/A"
    },
    {
        "image_id": "N/A",
        "name": "Camp Travis Community Hub",
        "tier": "basic",
        "category": "N/A",
        "phone": "",
        "address": "N/A",
        "town": "N/A",
        "state_zip": "N/A",
        "hours": "N/A",
        "website": "N/A",
        "facebook": "N/A",
        "bio": "N/A",
        "established": "N/A",
        "amazon_tag": "werewolf3788-20",
        "full_location": "N/A, N/A, N/A"
    },
    {
        "image_id": "N/A",
        "name": "Camp Travis Road Maintenance",
        "tier": "basic",
        "category": "N/A",
        "phone": "",
        "address": "N/A",
        "town": "N/A",
        "state_zip": "N/A",
        "hours": "N/A",
        "website": "N/A",
        "facebook": "N/A",
        "bio": "N/A",
        "established": "N/A",
        "amazon_tag": "werewolf3788-20",
        "full_location": "N/A, N/A, N/A"
    },
    {
        "image_id": "N/A",
        "name": "Cargill, Inc.",
        "tier": "basic",
        "category": "N/A",
        "phone": "",
        "address": "N/A",
        "town": "N/A",
        "state_zip": "N/A",
        "hours": "N/A",
        "website": "N/A",
        "facebook": "N/A",
        "bio": "N/A",
        "established": "N/A",
        "amazon_tag": "werewolf3788-20",
        "full_location": "N/A, N/A, N/A"
    },
    {
        "image_id": "N/A",
        "name": "Carol's Bridge Inn",
        "tier": "basic",
        "category": "N/A",
        "phone": "6183561699",
        "address": "300 Route 45 S, Louisville, IL 62858",
        "town": "N/A",
        "state_zip": "Gas Station",
        "hours": "N/A",
        "website": "N/A",
        "facebook": "caseys.com",
        "bio": "N/A",
        "established": "N/A",
        "amazon_tag": "werewolf3788-20",
        "full_location": "300 Route 45 S, Louisville, IL 62858, N/A, Gas Station"
    },
    {
        "image_id": "caseys",
        "name": "Casey's",
        "tier": "basic",
        "category": "N/A",
        "phone": "",
        "address": "N/A",
        "town": "N/A",
        "state_zip": "N/A",
        "hours": "N/A",
        "website": "N/A",
        "facebook": "N/A",
        "bio": "N/A",
        "established": "N/A",
        "amazon_tag": "werewolf3788-20",
        "full_location": "N/A, N/A, N/A"
    },
    {
        "image_id": "N/A",
        "name": "Casey's Clay City",
        "tier": "basic",
        "category": "N/A",
        "phone": "",
        "address": "N/A",
        "town": "N/A",
        "state_zip": "N/A",
        "hours": "N/A",
        "website": "N/A",
        "facebook": "N/A",
        "bio": "N/A",
        "established": "N/A",
        "amazon_tag": "werewolf3788-20",
        "full_location": "N/A, N/A, N/A"
    },
    {
        "image_id": "N/A",
        "name": "Casey's Flora (Hwy 45)",
        "tier": "basic",
        "category": "N/A",
        "phone": "",
        "address": "N/A",
        "town": "N/A",
        "state_zip": "N/A",
        "hours": "N/A",
        "website": "N/A",
        "facebook": "N/A",
        "bio": "N/A",
        "established": "N/A",
        "amazon_tag": "werewolf3788-20",
        "full_location": "N/A, N/A, N/A"
    },
    {
        "image_id": "N/A",
        "name": "Casey's Flora (W North)",
        "tier": "basic",
        "category": "N/A",
        "phone": "",
        "address": "N/A",
        "town": "N/A",
        "state_zip": "N/A",
        "hours": "N/A",
        "website": "N/A",
        "facebook": "N/A",
        "bio": "N/A",
        "established": "N/A",
        "amazon_tag": "werewolf3788-20",
        "full_location": "N/A, N/A, N/A"
    },
    {
        "image_id": "N/A",
        "name": "Casey's Louisville",
        "tier": "basic",
        "category": "N/A",
        "phone": "",
        "address": "N/A",
        "town": "N/A",
        "state_zip": "N/A",
        "hours": "N/A",
        "website": "N/A",
        "facebook": "N/A",
        "bio": "N/A",
        "established": "N/A",
        "amazon_tag": "werewolf3788-20",
        "full_location": "N/A, N/A, N/A"
    },
    {
        "image_id": "N/A",
        "name": "Central Clay County Water",
        "tier": "basic",
        "category": "N/A",
        "phone": "",
        "address": "N/A",
        "town": "N/A",
        "state_zip": "N/A",
        "hours": "N/A",
        "website": "N/A",
        "facebook": "N/A",
        "bio": "N/A",
        "established": "N/A",
        "amazon_tag": "werewolf3788-20",
        "full_location": "N/A, N/A, N/A"
    },
    {
        "image_id": "N/A",
        "name": "Ceres Solution",
        "tier": "basic",
        "category": "N/A",
        "phone": "",
        "address": "N/A",
        "town": "N/A",
        "state_zip": "N/A",
        "hours": "N/A",
        "website": "N/A",
        "facebook": "N/A",
        "bio": "N/A",
        "established": "https://www.facebook.com/CeresSolutionsCoop/",
        "amazon_tag": "werewolf3788-20",
        "full_location": "N/A, N/A, N/A"
    },
    {
        "image_id": "N/A",
        "name": "Ceres Solution (Clay City)",
        "tier": "basic",
        "category": "N/A",
        "phone": "",
        "address": "N/A",
        "town": "N/A",
        "state_zip": "N/A",
        "hours": "N/A",
        "website": "N/A",
        "facebook": "N/A",
        "bio": "N/A",
        "established": "N/A",
        "amazon_tag": "werewolf3788-20",
        "full_location": "N/A, N/A, N/A"
    },
    {
        "image_id": "N/A",
        "name": "Charlie's Tree Service",
        "tier": "basic",
        "category": "N/A",
        "phone": "",
        "address": "N/A",
        "town": "N/A",
        "state_zip": "N/A",
        "hours": "N/A",
        "website": "N/A",
        "facebook": "N/A",
        "bio": "N/A",
        "established": "N/A",
        "amazon_tag": "werewolf3788-20",
        "full_location": "N/A, N/A, N/A"
    },
    {
        "image_id": "charms-hair-saloon",
        "name": "Charms Hair Salon",
        "tier": "basic",
        "category": "N/A",
        "phone": "",
        "address": "N/A",
        "town": "N/A",
        "state_zip": "N/A",
        "hours": "N/A",
        "website": "N/A",
        "facebook": "N/A",
        "bio": "N/A",
        "established": "https://www.facebook.com/CharmHairCompany/",
        "amazon_tag": "werewolf3788-20",
        "full_location": "N/A, N/A, N/A"
    },
    {
        "image_id": "N/A",
        "name": "Christ's Church Flora",
        "tier": "basic",
        "category": "N/A",
        "phone": "",
        "address": "N/A",
        "town": "N/A",
        "state_zip": "N/A",
        "hours": "N/A",
        "website": "N/A",
        "facebook": "N/A",
        "bio": "N/A",
        "established": "https://www.facebook.com/ChristsChurchFlora/",
        "amazon_tag": "werewolf3788-20",
        "full_location": "N/A, N/A, N/A"
    },
    {
        "image_id": "N/A",
        "name": "Cindy J Bailey Farming",
        "tier": "basic",
        "category": "N/A",
        "phone": "",
        "address": "N/A",
        "town": "N/A",
        "state_zip": "N/A",
        "hours": "N/A",
        "website": "N/A",
        "facebook": "N/A",
        "bio": "N/A",
        "established": "N/A",
        "amazon_tag": "werewolf3788-20",
        "full_location": "N/A, N/A, N/A"
    },
    {
        "image_id": "N/A",
        "name": "City Dairy",
        "tier": "basic",
        "category": "N/A",
        "phone": "",
        "address": "N/A",
        "town": "N/A",
        "state_zip": "N/A",
        "hours": "N/A",
        "website": "N/A",
        "facebook": "N/A",
        "bio": "N/A",
        "established": "https://www.facebook.com/CityDairyFlora/",
        "amazon_tag": "werewolf3788-20",
        "full_location": "N/A, N/A, N/A"
    },
    {
        "image_id": "N/A",
        "name": "City of Flora Hall",
        "tier": "basic",
        "category": "N/A",
        "phone": "",
        "address": "N/A",
        "town": "N/A",
        "state_zip": "N/A",
        "hours": "N/A",
        "website": "N/A",
        "facebook": "N/A",
        "bio": "N/A",
        "established": "https://www.facebook.com/CityofFloraIL/",
        "amazon_tag": "werewolf3788-20",
        "full_location": "N/A, N/A, N/A"
    },
    {
        "image_id": "N/A",
        "name": "City of Flora Police Dept",
        "tier": "basic",
        "category": "N/A",
        "phone": "",
        "address": "N/A",
        "town": "N/A",
        "state_zip": "N/A",
        "hours": "N/A",
        "website": "N/A",
        "facebook": "N/A",
        "bio": "N/A",
        "established": "https://www.facebook.com/FloraPoliceDepartment/",
        "amazon_tag": "werewolf3788-20",
        "full_location": "N/A, N/A, N/A"
    },
    {
        "image_id": "clarners-barber-shop",
        "name": "Clarner's Barber Shop",
        "tier": "basic",
        "category": "N/A",
        "phone": "",
        "address": "N/A",
        "town": "N/A",
        "state_zip": "N/A",
        "hours": "N/A",
        "website": "N/A",
        "facebook": "N/A",
        "bio": "N/A",
        "established": "N/A",
        "amazon_tag": "werewolf3788-20",
        "full_location": "N/A, N/A, N/A"
    },
    {
        "image_id": "N/A",
        "name": "Clay City Auto Parts",
        "tier": "basic",
        "category": "N/A",
        "phone": "",
        "address": "N/A",
        "town": "N/A",
        "state_zip": "N/A",
        "hours": "N/A",
        "website": "N/A",
        "facebook": "N/A",
        "bio": "N/A",
        "established": "N/A",
        "amazon_tag": "werewolf3788-20",
        "full_location": "N/A, N/A, N/A"
    },
    {
        "image_id": "N/A",
        "name": "Clay City Bloom Box",
        "tier": "basic",
        "category": "N/A",
        "phone": "",
        "address": "N/A",
        "town": "N/A",
        "state_zip": "N/A",
        "hours": "N/A",
        "website": "N/A",
        "facebook": "N/A",
        "bio": "N/A",
        "established": "https://www.facebook.com/ClayCityBloomBox/",
        "amazon_tag": "werewolf3788-20",
        "full_location": "N/A, N/A, N/A"
    },
    {
        "image_id": "N/A",
        "name": "Clay City Car Wash & Laundromat",
        "tier": "basic",
        "category": "N/A",
        "phone": "",
        "address": "N/A",
        "town": "N/A",
        "state_zip": "N/A",
        "hours": "N/A",
        "website": "N/A",
        "facebook": "N/A",
        "bio": "N/A",
        "established": "N/A",
        "amazon_tag": "werewolf3788-20",
        "full_location": "N/A, N/A, N/A"
    },
    {
        "image_id": "N/A",
        "name": "Clay City Car Wash & Laundromate",
        "tier": "basic",
        "category": "N/A",
        "phone": "N/A",
        "address": "910 S Main St, Clay City, IL 62824",
        "town": "N/A",
        "state_zip": "Automotive",
        "hours": "N/A",
        "website": "N/A",
        "facebook": "N/A",
        "bio": "N/A",
        "established": "N/A",
        "amazon_tag": "werewolf3788-20",
        "full_location": "910 S Main St, Clay City, IL 62824, N/A, Automotive"
    },
    {
        "image_id": "clay-city-carwash",
        "name": "Clay City Carwash",
        "tier": "basic",
        "category": "N/A",
        "phone": "",
        "address": "N/A",
        "town": "N/A",
        "state_zip": "N/A",
        "hours": "N/A",
        "website": "N/A",
        "facebook": "N/A",
        "bio": "N/A",
        "established": "N/A",
        "amazon_tag": "werewolf3788-20",
        "full_location": "N/A, N/A, N/A"
    },
    {
        "image_id": "N/A",
        "name": "Clay City Family Medicine",
        "tier": "basic",
        "category": "N/A",
        "phone": "",
        "address": "N/A",
        "town": "N/A",
        "state_zip": "N/A",
        "hours": "N/A",
        "website": "N/A",
        "facebook": "N/A",
        "bio": "N/A",
        "established": "N/A",
        "amazon_tag": "werewolf3788-20",
        "full_location": "N/A, N/A, N/A"
    },
    {
        "image_id": "N/A",
        "name": "Clay City Fire Department",
        "tier": "basic",
        "category": "N/A",
        "phone": "",
        "address": "N/A",
        "town": "N/A",
        "state_zip": "N/A",
        "hours": "N/A",
        "website": "N/A",
        "facebook": "N/A",
        "bio": "N/A",
        "established": "https://www.facebook.com/ClayCityFire/",
        "amazon_tag": "werewolf3788-20",
        "full_location": "N/A, N/A, N/A"
    },
    {
        "image_id": "N/A",
        "name": "Clay City First Baptist Church",
        "tier": "basic",
        "category": "N/A",
        "phone": "",
        "address": "N/A",
        "town": "N/A",
        "state_zip": "N/A",
        "hours": "N/A",
        "website": "N/A",
        "facebook": "N/A",
        "bio": "N/A",
        "established": "N/A",
        "amazon_tag": "werewolf3788-20",
        "full_location": "N/A, N/A, N/A"
    },
    {
        "image_id": "N/A",
        "name": "Clay City Grain LLC",
        "tier": "basic",
        "category": "N/A",
        "phone": "",
        "address": "N/A",
        "town": "N/A",
        "state_zip": "N/A",
        "hours": "N/A",
        "website": "N/A",
        "facebook": "N/A",
        "bio": "N/A",
        "established": "N/A",
        "amazon_tag": "werewolf3788-20",
        "full_location": "N/A, N/A, N/A"
    },
    {
        "image_id": "clay-city-high",
        "name": "Clay City High School",
        "tier": "basic",
        "category": "N/A",
        "phone": "",
        "address": "N/A",
        "town": "N/A",
        "state_zip": "N/A",
        "hours": "N/A",
        "website": "N/A",
        "facebook": "N/A",
        "bio": "N/A",
        "established": "N/A",
        "amazon_tag": "werewolf3788-20",
        "full_location": "N/A, N/A, N/A"
    },
    {
        "image_id": "N/A",
        "name": "Clay City News",
        "tier": "basic",
        "category": "N/A",
        "phone": "",
        "address": "N/A",
        "town": "N/A",
        "state_zip": "N/A",
        "hours": "N/A",
        "website": "N/A",
        "facebook": "N/A",
        "bio": "N/A",
        "established": "N/A",
        "amazon_tag": "werewolf3788-20",
        "full_location": "N/A, N/A, N/A"
    },
    {
        "image_id": "N/A",
        "name": "Clay City Pharmacy",
        "tier": "basic",
        "category": "N/A",
        "phone": "",
        "address": "N/A",
        "town": "N/A",
        "state_zip": "N/A",
        "hours": "N/A",
        "website": "N/A",
        "facebook": "N/A",
        "bio": "N/A",
        "established": "https://www.facebook.com/ClayCityPharmacy/",
        "amazon_tag": "werewolf3788-20",
        "full_location": "N/A, N/A, N/A"
    },
    {
        "image_id": "N/A",
        "name": "Clay City Post Office",
        "tier": "basic",
        "category": "N/A",
        "phone": "",
        "address": "N/A",
        "town": "N/A",
        "state_zip": "N/A",
        "hours": "N/A",
        "website": "N/A",
        "facebook": "N/A",
        "bio": "N/A",
        "established": "N/A",
        "amazon_tag": "werewolf3788-20",
        "full_location": "N/A, N/A, N/A"
    },
    {
        "image_id": "N/A",
        "name": "Clay City Pottery",
        "tier": "basic",
        "category": "N/A",
        "phone": "",
        "address": "N/A",
        "town": "N/A",
        "state_zip": "N/A",
        "hours": "N/A",
        "website": "N/A",
        "facebook": "N/A",
        "bio": "N/A",
        "established": "https://www.facebook.com/ClayCityPottery/",
        "amazon_tag": "werewolf3788-20",
        "full_location": "N/A, N/A, N/A"
    },
    {
        "image_id": "N/A",
        "name": "Clay City Recreation Board",
        "tier": "basic",
        "category": "N/A",
        "phone": "",
        "address": "N/A",
        "town": "N/A",
        "state_zip": "N/A",
        "hours": "N/A",
        "website": "N/A",
        "facebook": "N/A",
        "bio": "N/A",
        "established": "https://www.facebook.com/ClayCityParks/",
        "amazon_tag": "werewolf3788-20",
        "full_location": "N/A, N/A, N/A"
    },
    {
        "image_id": "N/A",
        "name": "Clay City Senior Housing",
        "tier": "basic",
        "category": "N/A",
        "phone": "",
        "address": "N/A",
        "town": "N/A",
        "state_zip": "N/A",
        "hours": "N/A",
        "website": "N/A",
        "facebook": "N/A",
        "bio": "N/A",
        "established": "N/A",
        "amazon_tag": "werewolf3788-20",
        "full_location": "N/A, N/A, N/A"
    },
    {
        "image_id": "N/A",
        "name": "Clay City Village Hall",
        "tier": "basic",
        "category": "N/A",
        "phone": "",
        "address": "N/A",
        "town": "N/A",
        "state_zip": "N/A",
        "hours": "N/A",
        "website": "N/A",
        "facebook": "N/A",
        "bio": "N/A",
        "established": "https://www.facebook.com/VillageOfClayCity/",
        "amazon_tag": "werewolf3788-20",
        "full_location": "N/A, N/A, N/A"
    },
    {
        "image_id": "N/A",
        "name": "Clay City Water & Sewer",
        "tier": "basic",
        "category": "N/A",
        "phone": "",
        "address": "N/A",
        "town": "N/A",
        "state_zip": "N/A",
        "hours": "N/A",
        "website": "N/A",
        "facebook": "N/A",
        "bio": "N/A",
        "established": "N/A",
        "amazon_tag": "werewolf3788-20",
        "full_location": "N/A, N/A, N/A"
    },
    {
        "image_id": "N/A",
        "name": "Clay Co Circuit Clerk",
        "tier": "basic",
        "category": "N/A",
        "phone": "",
        "address": "N/A",
        "town": "N/A",
        "state_zip": "N/A",
        "hours": "N/A",
        "website": "N/A",
        "facebook": "N/A",
        "bio": "N/A",
        "established": "N/A",
        "amazon_tag": "werewolf3788-20",
        "full_location": "N/A, N/A, N/A"
    },
    {
        "image_id": "N/A",
        "name": "Clay Co Clerk & Recorder",
        "tier": "basic",
        "category": "N/A",
        "phone": "",
        "address": "N/A",
        "town": "N/A",
        "state_zip": "N/A",
        "hours": "N/A",
        "website": "N/A",
        "facebook": "N/A",
        "bio": "N/A",
        "established": "N/A",
        "amazon_tag": "werewolf3788-20",
        "full_location": "N/A, N/A, N/A"
    },
    {
        "image_id": "N/A",
        "name": "Clay County 4-H Office",
        "tier": "basic",
        "category": "N/A",
        "phone": "",
        "address": "N/A",
        "town": "N/A",
        "state_zip": "N/A",
        "hours": "N/A",
        "website": "N/A",
        "facebook": "N/A",
        "bio": "N/A",
        "established": "https://www.facebook.com/ClayCounty4H/",
        "amazon_tag": "werewolf3788-20",
        "full_location": "N/A, N/A, N/A"
    },
    {
        "image_id": "N/A",
        "name": "Clay County Animal Control",
        "tier": "basic",
        "category": "N/A",
        "phone": "",
        "address": "N/A",
        "town": "N/A",
        "state_zip": "N/A",
        "hours": "N/A",
        "website": "N/A",
        "facebook": "N/A",
        "bio": "N/A",
        "established": "https://www.facebook.com/Clay-County-Animal-Rescue-and-Shelter-142279185836269/",
        "amazon_tag": "werewolf3788-20",
        "full_location": "N/A, N/A, N/A"
    },
    {
        "image_id": "N/A",
        "name": "Clay County Circuit Clerk",
        "tier": "basic",
        "category": "N/A",
        "phone": "",
        "address": "N/A",
        "town": "N/A",
        "state_zip": "N/A",
        "hours": "N/A",
        "website": "N/A",
        "facebook": "N/A",
        "bio": "N/A",
        "established": "N/A",
        "amazon_tag": "werewolf3788-20",
        "full_location": "N/A, N/A, N/A"
    },
    {
        "image_id": "N/A",
        "name": "Clay County Clerk & Recorder",
        "tier": "basic",
        "category": "N/A",
        "phone": "",
        "address": "N/A",
        "town": "N/A",
        "state_zip": "N/A",
        "hours": "N/A",
        "website": "N/A",
        "facebook": "N/A",
        "bio": "N/A",
        "established": "https://www.facebook.com/AmyBrittonClerk/",
        "amazon_tag": "werewolf3788-20",
        "full_location": "N/A, N/A, N/A"
    },
    {
        "image_id": "N/A",
        "name": "Clay County Coroner",
        "tier": "basic",
        "category": "N/A",
        "phone": "",
        "address": "N/A",
        "town": "N/A",
        "state_zip": "N/A",
        "hours": "N/A",
        "website": "N/A",
        "facebook": "N/A",
        "bio": "N/A",
        "established": "N/A",
        "amazon_tag": "werewolf3788-20",
        "full_location": "N/A, N/A, N/A"
    },
    {
        "image_id": "N/A",
        "name": "Clay County Counseling",
        "tier": "basic",
        "category": "N/A",
        "phone": "",
        "address": "N/A",
        "town": "N/A",
        "state_zip": "N/A",
        "hours": "N/A",
        "website": "N/A",
        "facebook": "N/A",
        "bio": "N/A",
        "established": "N/A",
        "amazon_tag": "werewolf3788-20",
        "full_location": "N/A, N/A, N/A"
    },
    {
        "image_id": "N/A",
        "name": "Clay County Counseling Services, Cara Rinehart LCPC",
        "tier": "basic",
        "category": "N/A",
        "phone": "",
        "address": "N/A",
        "town": "N/A",
        "state_zip": "N/A",
        "hours": "N/A",
        "website": "N/A",
        "facebook": "N/A",
        "bio": "N/A",
        "established": "N/A",
        "amazon_tag": "werewolf3788-20",
        "full_location": "N/A, N/A, N/A"
    },
    {
        "image_id": "N/A",
        "name": "Clay County Courthouse",
        "tier": "basic",
        "category": "N/A",
        "phone": "",
        "address": "N/A",
        "town": "N/A",
        "state_zip": "N/A",
        "hours": "N/A",
        "website": "N/A",
        "facebook": "N/A",
        "bio": "N/A",
        "established": "N/A",
        "amazon_tag": "werewolf3788-20",
        "full_location": "N/A, N/A, N/A"
    },
    {
        "image_id": "N/A",
        "name": "Clay County Engineer",
        "tier": "basic",
        "category": "N/A",
        "phone": "",
        "address": "N/A",
        "town": "N/A",
        "state_zip": "N/A",
        "hours": "N/A",
        "website": "N/A",
        "facebook": "N/A",
        "bio": "N/A",
        "established": "N/A",
        "amazon_tag": "werewolf3788-20",
        "full_location": "N/A, N/A, N/A"
    },
    {
        "image_id": "N/A",
        "name": "Clay County ESDA",
        "tier": "basic",
        "category": "N/A",
        "phone": "",
        "address": "N/A",
        "town": "N/A",
        "state_zip": "N/A",
        "hours": "N/A",
        "website": "N/A",
        "facebook": "N/A",
        "bio": "N/A",
        "established": "N/A",
        "amazon_tag": "werewolf3788-20",
        "full_location": "N/A, N/A, N/A"
    },
    {
        "image_id": "N/A",
        "name": "Clay County Fair Association",
        "tier": "basic",
        "category": "N/A",
        "phone": "",
        "address": "N/A",
        "town": "N/A",
        "state_zip": "N/A",
        "hours": "N/A",
        "website": "N/A",
        "facebook": "N/A",
        "bio": "N/A",
        "established": "https://www.facebook.com/claycountyillinoisfair/",
        "amazon_tag": "werewolf3788-20",
        "full_location": "N/A, N/A, N/A"
    },
    {
        "image_id": "N/A",
        "name": "Clay County Farm Bureau",
        "tier": "basic",
        "category": "N/A",
        "phone": "",
        "address": "N/A",
        "town": "N/A",
        "state_zip": "N/A",
        "hours": "N/A",
        "website": "N/A",
        "facebook": "N/A",
        "bio": "N/A",
        "established": "https://www.facebook.com/ClayCountyFarmBureau/",
        "amazon_tag": "werewolf3788-20",
        "full_location": "N/A, N/A, N/A"
    },
    {
        "image_id": "N/A",
        "name": "Clay County Genealogical Society",
        "tier": "basic",
        "category": "N/A",
        "phone": "",
        "address": "N/A",
        "town": "N/A",
        "state_zip": "N/A",
        "hours": "N/A",
        "website": "N/A",
        "facebook": "N/A",
        "bio": "N/A",
        "established": "https://www.facebook.com/CCIGS/",
        "amazon_tag": "werewolf3788-20",
        "full_location": "N/A, N/A, N/A"
    },
    {
        "image_id": "N/A",
        "name": "Clay County Health Better Birth",
        "tier": "basic",
        "category": "N/A",
        "phone": "",
        "address": "N/A",
        "town": "N/A",
        "state_zip": "N/A",
        "hours": "N/A",
        "website": "N/A",
        "facebook": "N/A",
        "bio": "N/A",
        "established": "N/A",
        "amazon_tag": "werewolf3788-20",
        "full_location": "N/A, N/A, N/A"
    },
    {
        "image_id": "N/A",
        "name": "Clay County Health Dept",
        "tier": "basic",
        "category": "N/A",
        "phone": "",
        "address": "N/A",
        "town": "N/A",
        "state_zip": "N/A",
        "hours": "N/A",
        "website": "N/A",
        "facebook": "N/A",
        "bio": "N/A",
        "established": "https://www.facebook.com/ClayCountyHealthDepartment/",
        "amazon_tag": "werewolf3788-20",
        "full_location": "N/A, N/A, N/A"
    },
    {
        "image_id": "N/A",
        "name": "Clay County Highway Dept",
        "tier": "basic",
        "category": "N/A",
        "phone": "",
        "address": "N/A",
        "town": "N/A",
        "state_zip": "N/A",
        "hours": "N/A",
        "website": "N/A",
        "facebook": "N/A",
        "bio": "N/A",
        "established": "N/A",
        "amazon_tag": "werewolf3788-20",
        "full_location": "N/A, N/A, N/A"
    },
    {
        "image_id": "N/A",
        "name": "Clay County Hospital",
        "tier": "basic",
        "category": "N/A",
        "phone": "",
        "address": "N/A",
        "town": "N/A",
        "state_zip": "N/A",
        "hours": "N/A",
        "website": "N/A",
        "facebook": "N/A",
        "bio": "N/A",
        "established": "https://www.facebook.com/ClayCountyHospital/",
        "amazon_tag": "werewolf3788-20",
        "full_location": "N/A, N/A, N/A"
    },
    {
        "image_id": "N/A",
        "name": "Clay County Hospital Counseling",
        "tier": "basic",
        "category": "N/A",
        "phone": "",
        "address": "N/A",
        "town": "N/A",
        "state_zip": "N/A",
        "hours": "N/A",
        "website": "N/A",
        "facebook": "N/A",
        "bio": "N/A",
        "established": "N/A",
        "amazon_tag": "werewolf3788-20",
        "full_location": "N/A, N/A, N/A"
    },
    {
        "image_id": "N/A",
        "name": "Clay County Housing Authority",
        "tier": "basic",
        "category": "N/A",
        "phone": "",
        "address": "N/A",
        "town": "N/A",
        "state_zip": "N/A",
        "hours": "N/A",
        "website": "N/A",
        "facebook": "N/A",
        "bio": "N/A",
        "established": "N/A",
        "amazon_tag": "werewolf3788-20",
        "full_location": "N/A, N/A, N/A"
    },
    {
        "image_id": "N/A",
        "name": "Clay County Ministerial Alliance",
        "tier": "basic",
        "category": "N/A",
        "phone": "",
        "address": "N/A",
        "town": "N/A",
        "state_zip": "N/A",
        "hours": "N/A",
        "website": "N/A",
        "facebook": "N/A",
        "bio": "N/A",
        "established": "N/A",
        "amazon_tag": "werewolf3788-20",
        "full_location": "N/A, N/A, N/A"
    },
    {
        "image_id": "N/A",
        "name": "Clay County Public Defender",
        "tier": "basic",
        "category": "N/A",
        "phone": "",
        "address": "N/A",
        "town": "N/A",
        "state_zip": "N/A",
        "hours": "N/A",
        "website": "N/A",
        "facebook": "N/A",
        "bio": "N/A",
        "established": "N/A",
        "amazon_tag": "werewolf3788-20",
        "full_location": "N/A, N/A, N/A"
    },
    {
        "image_id": "N/A",
        "name": "Clay County Reg. Supt. Schools",
        "tier": "basic",
        "category": "N/A",
        "phone": "",
        "address": "N/A",
        "town": "N/A",
        "state_zip": "N/A",
        "hours": "N/A",
        "website": "N/A",
        "facebook": "N/A",
        "bio": "N/A",
        "established": "N/A",
        "amazon_tag": "werewolf3788-20",
        "full_location": "N/A, N/A, N/A"
    },
    {
        "image_id": "N/A",
        "name": "Clay County Rehab",
        "tier": "basic",
        "category": "N/A",
        "phone": "6186626607",
        "address": "1 Commercial Dr, Flora, IL62839",
        "town": "N/A",
        "state_zip": "Industries",
        "hours": "N/A",
        "website": "N/A",
        "facebook": "https://www.secureprocessors.org/",
        "bio": "N/A",
        "established": "https://www.facebook.com/ClayCountyRehab/",
        "amazon_tag": "werewolf3788-20",
        "full_location": "1 Commercial Dr, Flora, IL62839, N/A, Industries"
    },
    {
        "image_id": "N/A",
        "name": "Clay County Rehab",
        "tier": "basic",
        "category": "N/A",
        "phone": "6186653316",
        "address": "14450 US-45, Louisville, IL 62858",
        "town": "N/A",
        "state_zip": "Emergency",
        "hours": "N/A",
        "website": "N/A",
        "facebook": "claycountysheriffillinois.org",
        "bio": "N/A",
        "established": "https://www.facebook.com/ClayCountyRehab/",
        "amazon_tag": "werewolf3788-20",
        "full_location": "14450 US-45, Louisville, IL 62858, N/A, Emergency"
    },
    {
        "image_id": "N/A",
        "name": "Clay County Sheriff's Office",
        "tier": "basic",
        "category": "N/A",
        "phone": "",
        "address": "N/A",
        "town": "N/A",
        "state_zip": "N/A",
        "hours": "N/A",
        "website": "N/A",
        "facebook": "N/A",
        "bio": "N/A",
        "established": "https://www.facebook.com/ClayCountySheriffsOffice/",
        "amazon_tag": "werewolf3788-20",
        "full_location": "N/A, N/A, N/A"
    },
    {
        "image_id": "N/A",
        "name": "Clay County State Bank",
        "tier": "basic",
        "category": "N/A",
        "phone": "",
        "address": "N/A",
        "town": "N/A",
        "state_zip": "N/A",
        "hours": "N/A",
        "website": "N/A",
        "facebook": "N/A",
        "bio": "N/A",
        "established": "https://www.facebook.com/ClayCountyStateBank/",
        "amazon_tag": "werewolf3788-20",
        "full_location": "N/A, N/A, N/A"
    },
    {
        "image_id": "N/A",
        "name": "Clay County State's Attorney",
        "tier": "basic",
        "category": "N/A",
        "phone": "",
        "address": "N/A",
        "town": "N/A",
        "state_zip": "N/A",
        "hours": "N/A",
        "website": "N/A",
        "facebook": "N/A",
        "bio": "N/A",
        "established": "N/A",
        "amazon_tag": "werewolf3788-20",
        "full_location": "N/A, N/A, N/A"
    },
    {
        "image_id": "N/A",
        "name": "Clay County State's Attorney Office",
        "tier": "basic",
        "category": "N/A",
        "phone": "",
        "address": "N/A",
        "town": "N/A",
        "state_zip": "N/A",
        "hours": "N/A",
        "website": "N/A",
        "facebook": "N/A",
        "bio": "N/A",
        "established": "N/A",
        "amazon_tag": "werewolf3788-20",
        "full_location": "N/A, N/A, N/A"
    },
    {
        "image_id": "N/A",
        "name": "Clay County Supervisor Assessments",
        "tier": "basic",
        "category": "N/A",
        "phone": "",
        "address": "N/A",
        "town": "N/A",
        "state_zip": "N/A",
        "hours": "N/A",
        "website": "N/A",
        "facebook": "N/A",
        "bio": "N/A",
        "established": "N/A",
        "amazon_tag": "werewolf3788-20",
        "full_location": "N/A, N/A, N/A"
    },
    {
        "image_id": "N/A",
        "name": "Clay County Treasurer",
        "tier": "basic",
        "category": "N/A",
        "phone": "",
        "address": "N/A",
        "town": "N/A",
        "state_zip": "N/A",
        "hours": "N/A",
        "website": "N/A",
        "facebook": "N/A",
        "bio": "N/A",
        "established": "N/A",
        "amazon_tag": "werewolf3788-20",
        "full_location": "N/A, N/A, N/A"
    },
    {
        "image_id": "N/A",
        "name": "Clay County Trial Court Admin",
        "tier": "basic",
        "category": "N/A",
        "phone": "",
        "address": "N/A",
        "town": "N/A",
        "state_zip": "N/A",
        "hours": "N/A",
        "website": "N/A",
        "facebook": "N/A",
        "bio": "N/A",
        "established": "N/A",
        "amazon_tag": "werewolf3788-20",
        "full_location": "N/A, N/A, N/A"
    },
    {
        "image_id": "N/A",
        "name": "Clay County Wound Care Clinic",
        "tier": "basic",
        "category": "N/A",
        "phone": "",
        "address": "N/A",
        "town": "N/A",
        "state_zip": "N/A",
        "hours": "N/A",
        "website": "N/A",
        "facebook": "N/A",
        "bio": "N/A",
        "established": "N/A",
        "amazon_tag": "werewolf3788-20",
        "full_location": "N/A, N/A, N/A"
    },
    {
        "image_id": "N/A",
        "name": "Clevenger Collision",
        "tier": "basic",
        "category": "N/A",
        "phone": "",
        "address": "N/A",
        "town": "N/A",
        "state_zip": "N/A",
        "hours": "N/A",
        "website": "N/A",
        "facebook": "N/A",
        "bio": "N/A",
        "established": "N/A",
        "amazon_tag": "werewolf3788-20",
        "full_location": "N/A, N/A, N/A"
    },
    {
        "image_id": "N/A",
        "name": "Community of Christ Church",
        "tier": "basic",
        "category": "N/A",
        "phone": "",
        "address": "N/A",
        "town": "N/A",
        "state_zip": "N/A",
        "hours": "N/A",
        "website": "N/A",
        "facebook": "N/A",
        "bio": "N/A",
        "established": "N/A",
        "amazon_tag": "werewolf3788-20",
        "full_location": "N/A, N/A, N/A"
    },
    {
        "image_id": "N/A",
        "name": "COUNTRY Financial - Lisa Erbacher",
        "tier": "basic",
        "category": "N/A",
        "phone": "",
        "address": "N/A",
        "town": "N/A",
        "state_zip": "N/A",
        "hours": "N/A",
        "website": "N/A",
        "facebook": "N/A",
        "bio": "N/A",
        "established": "https://www.facebook.com/LisaErbacherCountryFinancial/",
        "amazon_tag": "werewolf3788-20",
        "full_location": "N/A, N/A, N/A"
    },
    {
        "image_id": "N/A",
        "name": "Crossroads Community Church",
        "tier": "basic",
        "category": "N/A",
        "phone": "",
        "address": "N/A",
        "town": "N/A",
        "state_zip": "N/A",
        "hours": "N/A",
        "website": "N/A",
        "facebook": "N/A",
        "bio": "N/A",
        "established": "N/A",
        "amazon_tag": "werewolf3788-20",
        "full_location": "N/A, N/A, N/A"
    },
    {
        "image_id": "N/A",
        "name": "Cruse Township Support",
        "tier": "basic",
        "category": "N/A",
        "phone": "",
        "address": "N/A",
        "town": "N/A",
        "state_zip": "N/A",
        "hours": "N/A",
        "website": "N/A",
        "facebook": "N/A",
        "bio": "N/A",
        "established": "N/A",
        "amazon_tag": "werewolf3788-20",
        "full_location": "N/A, N/A, N/A"
    },
    {
        "image_id": "cuttin-up",
        "name": "Cuttin' Up Salon",
        "tier": "basic",
        "category": "N/A",
        "phone": "",
        "address": "N/A",
        "town": "N/A",
        "state_zip": "N/A",
        "hours": "N/A",
        "website": "N/A",
        "facebook": "N/A",
        "bio": "N/A",
        "established": "https://www.facebook.com/CuttinUpLouisville/",
        "amazon_tag": "werewolf3788-20",
        "full_location": "N/A, N/A, N/A"
    },
    {
        "image_id": "N/A",
        "name": "CVS Pharmacy Flora",
        "tier": "basic",
        "category": "N/A",
        "phone": "",
        "address": "N/A",
        "town": "N/A",
        "state_zip": "N/A",
        "hours": "N/A",
        "website": "N/A",
        "facebook": "N/A",
        "bio": "N/A",
        "established": "N/A",
        "amazon_tag": "werewolf3788-20",
        "full_location": "N/A, N/A, N/A"
    },
    {
        "image_id": "N/A",
        "name": "D & D Tire Service",
        "tier": "basic",
        "category": "N/A",
        "phone": "",
        "address": "N/A",
        "town": "N/A",
        "state_zip": "N/A",
        "hours": "N/A",
        "website": "N/A",
        "facebook": "N/A",
        "bio": "N/A",
        "established": "N/A",
        "amazon_tag": "werewolf3788-20",
        "full_location": "N/A, N/A, N/A"
    },
    {
        "image_id": "N/A",
        "name": "D.A. Nabhan Plumbing",
        "tier": "basic",
        "category": "N/A",
        "phone": "",
        "address": "N/A",
        "town": "N/A",
        "state_zip": "N/A",
        "hours": "N/A",
        "website": "N/A",
        "facebook": "N/A",
        "bio": "N/A",
        "established": "N/A",
        "amazon_tag": "werewolf3788-20",
        "full_location": "N/A, N/A, N/A"
    },
    {
        "image_id": "N/A",
        "name": "Dairy Queen Flora",
        "tier": "basic",
        "category": "N/A",
        "phone": "",
        "address": "N/A",
        "town": "N/A",
        "state_zip": "N/A",
        "hours": "N/A",
        "website": "N/A",
        "facebook": "N/A",
        "bio": "N/A",
        "established": "N/A",
        "amazon_tag": "werewolf3788-20",
        "full_location": "N/A, N/A, N/A"
    },
    {
        "image_id": "N/A",
        "name": "Dale Hastings Farming",
        "tier": "basic",
        "category": "N/A",
        "phone": "",
        "address": "N/A",
        "town": "N/A",
        "state_zip": "N/A",
        "hours": "N/A",
        "website": "N/A",
        "facebook": "N/A",
        "bio": "N/A",
        "established": "N/A",
        "amazon_tag": "werewolf3788-20",
        "full_location": "N/A, N/A, N/A"
    },
    {
        "image_id": "N/A",
        "name": "Darin's Doodads",
        "tier": "basic",
        "category": "N/A",
        "phone": "",
        "address": "N/A",
        "town": "N/A",
        "state_zip": "N/A",
        "hours": "N/A",
        "website": "N/A",
        "facebook": "N/A",
        "bio": "N/A",
        "established": "N/A",
        "amazon_tag": "werewolf3788-20",
        "full_location": "N/A, N/A, N/A"
    },
    {
        "image_id": "N/A",
        "name": "Darrin S Hout Farming",
        "tier": "basic",
        "category": "N/A",
        "phone": "",
        "address": "N/A",
        "town": "N/A",
        "state_zip": "N/A",
        "hours": "N/A",
        "website": "N/A",
        "facebook": "N/A",
        "bio": "N/A",
        "established": "N/A",
        "amazon_tag": "werewolf3788-20",
        "full_location": "N/A, N/A, N/A"
    },
    {
        "image_id": "N/A",
        "name": "Dashco/Rainguard",
        "tier": "basic",
        "category": "N/A",
        "phone": "",
        "address": "N/A",
        "town": "N/A",
        "state_zip": "N/A",
        "hours": "N/A",
        "website": "N/A",
        "facebook": "N/A",
        "bio": "N/A",
        "established": "N/A",
        "amazon_tag": "werewolf3788-20",
        "full_location": "N/A, N/A, N/A"
    },
    {
        "image_id": "N/A",
        "name": "Dave's Auto Repair",
        "tier": "basic",
        "category": "N/A",
        "phone": "",
        "address": "N/A",
        "town": "N/A",
        "state_zip": "N/A",
        "hours": "N/A",
        "website": "N/A",
        "facebook": "N/A",
        "bio": "N/A",
        "established": "N/A",
        "amazon_tag": "werewolf3788-20",
        "full_location": "N/A, N/A, N/A"
    },
    {
        "image_id": "N/A",
        "name": "Dave's Auto Repair",
        "tier": "basic",
        "category": "N/A",
        "phone": "",
        "address": "N/A",
        "town": "N/A",
        "state_zip": "N/A",
        "hours": "N/A",
        "website": "N/A",
        "facebook": "N/A",
        "bio": "N/A",
        "established": "N/A",
        "amazon_tag": "werewolf3788-20",
        "full_location": "N/A, N/A, N/A"
    },
    {
        "image_id": "N/A",
        "name": "Diamond Construction Co.",
        "tier": "basic",
        "category": "N/A",
        "phone": "",
        "address": "N/A",
        "town": "N/A",
        "state_zip": "N/A",
        "hours": "N/A",
        "website": "N/A",
        "facebook": "N/A",
        "bio": "N/A",
        "established": "N/A",
        "amazon_tag": "werewolf3788-20",
        "full_location": "N/A, N/A, N/A"
    },
    {
        "image_id": "N/A",
        "name": "Dimensions Salon",
        "tier": "basic",
        "category": "N/A",
        "phone": "",
        "address": "N/A",
        "town": "N/A",
        "state_zip": "N/A",
        "hours": "N/A",
        "website": "N/A",
        "facebook": "N/A",
        "bio": "N/A",
        "established": "N/A",
        "amazon_tag": "werewolf3788-20",
        "full_location": "N/A, N/A, N/A"
    },
    {
        "image_id": "dollar-general",
        "name": "Dollar General Clay City",
        "tier": "basic",
        "category": "N/A",
        "phone": "",
        "address": "N/A",
        "town": "N/A",
        "state_zip": "N/A",
        "hours": "N/A",
        "website": "N/A",
        "facebook": "N/A",
        "bio": "N/A",
        "established": "N/A",
        "amazon_tag": "werewolf3788-20",
        "full_location": "N/A, N/A, N/A"
    },
    {
        "image_id": "dollar-general",
        "name": "Dollar General Flora",
        "tier": "basic",
        "category": "N/A",
        "phone": "",
        "address": "N/A",
        "town": "N/A",
        "state_zip": "N/A",
        "hours": "N/A",
        "website": "N/A",
        "facebook": "N/A",
        "bio": "N/A",
        "established": "N/A",
        "amazon_tag": "werewolf3788-20",
        "full_location": "N/A, N/A, N/A"
    },
    {
        "image_id": "dollar-general",
        "name": "Dollar General Louisville",
        "tier": "basic",
        "category": "N/A",
        "phone": "",
        "address": "N/A",
        "town": "N/A",
        "state_zip": "N/A",
        "hours": "N/A",
        "website": "N/A",
        "facebook": "N/A",
        "bio": "N/A",
        "established": "N/A",
        "amazon_tag": "werewolf3788-20",
        "full_location": "N/A, N/A, N/A"
    },
    {
        "image_id": "N/A",
        "name": "Dollar General Louisville",
        "tier": "basic",
        "category": "N/A",
        "phone": "",
        "address": "N/A",
        "town": "N/A",
        "state_zip": "N/A",
        "hours": "N/A",
        "website": "N/A",
        "facebook": "N/A",
        "bio": "N/A",
        "established": "N/A",
        "amazon_tag": "werewolf3788-20",
        "full_location": "N/A, N/A, N/A"
    },
    {
        "image_id": "N/A",
        "name": "Doug's Small Engine Repair",
        "tier": "basic",
        "category": "N/A",
        "phone": "",
        "address": "N/A",
        "town": "N/A",
        "state_zip": "N/A",
        "hours": "N/A",
        "website": "N/A",
        "facebook": "N/A",
        "bio": "N/A",
        "established": "N/A",
        "amazon_tag": "werewolf3788-20",
        "full_location": "N/A, N/A, N/A"
    },
    {
        "image_id": "N/A",
        "name": "Douglas Lee Krutsinger Farming",
        "tier": "basic",
        "category": "N/A",
        "phone": "",
        "address": "N/A",
        "town": "N/A",
        "state_zip": "N/A",
        "hours": "N/A",
        "website": "N/A",
        "facebook": "N/A",
        "bio": "N/A",
        "established": "N/A",
        "amazon_tag": "werewolf3788-20",
        "full_location": "N/A, N/A, N/A"
    },
    {
        "image_id": "N/A",
        "name": "Downtown Diner",
        "tier": "basic",
        "category": "N/A",
        "phone": "",
        "address": "N/A",
        "town": "N/A",
        "state_zip": "N/A",
        "hours": "N/A",
        "website": "N/A",
        "facebook": "N/A",
        "bio": "N/A",
        "established": "https://www.facebook.com/DowntownDinerFlora/",
        "amazon_tag": "werewolf3788-20",
        "full_location": "N/A, N/A, N/A"
    },
    {
        "image_id": "dustys-tires",
        "name": "Dusty's Tire",
        "tier": "basic",
        "category": "N/A",
        "phone": "",
        "address": "N/A",
        "town": "N/A",
        "state_zip": "N/A",
        "hours": "N/A",
        "website": "N/A",
        "facebook": "N/A",
        "bio": "N/A",
        "established": "N/A",
        "amazon_tag": "werewolf3788-20",
        "full_location": "N/A, N/A, N/A"
    },
    {
        "image_id": "N/A",
        "name": "Dyer-Hill Insurance",
        "tier": "basic",
        "category": "N/A",
        "phone": "",
        "address": "N/A",
        "town": "N/A",
        "state_zip": "N/A",
        "hours": "N/A",
        "website": "N/A",
        "facebook": "N/A",
        "bio": "N/A",
        "established": "N/A",
        "amazon_tag": "werewolf3788-20",
        "full_location": "N/A, N/A, N/A"
    },
    {
        "image_id": "N/A",
        "name": "Ebbert's Machine Shop",
        "tier": "basic",
        "category": "N/A",
        "phone": "",
        "address": "N/A",
        "town": "N/A",
        "state_zip": "N/A",
        "hours": "N/A",
        "website": "N/A",
        "facebook": "N/A",
        "bio": "N/A",
        "established": "N/A",
        "amazon_tag": "werewolf3788-20",
        "full_location": "N/A, N/A, N/A"
    },
    {
        "image_id": "N/A",
        "name": "Ed Lewis Trucking",
        "tier": "basic",
        "category": "N/A",
        "phone": "",
        "address": "N/A",
        "town": "N/A",
        "state_zip": "N/A",
        "hours": "N/A",
        "website": "N/A",
        "facebook": "N/A",
        "bio": "N/A",
        "established": "N/A",
        "amazon_tag": "werewolf3788-20",
        "full_location": "N/A, N/A, N/A"
    },
    {
        "image_id": "N/A",
        "name": "Eddy's Tree Service",
        "tier": "basic",
        "category": "N/A",
        "phone": "",
        "address": "N/A",
        "town": "N/A",
        "state_zip": "N/A",
        "hours": "N/A",
        "website": "N/A",
        "facebook": "N/A",
        "bio": "N/A",
        "established": "https://www.facebook.com/EddysTreeService/",
        "amazon_tag": "werewolf3788-20",
        "full_location": "N/A, N/A, N/A"
    },
    {
        "image_id": "N/A",
        "name": "Edward Jones - Cody Fisher",
        "tier": "basic",
        "category": "N/A",
        "phone": "",
        "address": "N/A",
        "town": "N/A",
        "state_zip": "N/A",
        "hours": "N/A",
        "website": "N/A",
        "facebook": "N/A",
        "bio": "N/A",
        "established": "https://www.facebook.com/EJAdvisorCodyFisher/",
        "amazon_tag": "werewolf3788-20",
        "full_location": "N/A, N/A, N/A"
    },
    {
        "image_id": "N/A",
        "name": "Emory St Evangelistic Methodist",
        "tier": "basic",
        "category": "N/A",
        "phone": "",
        "address": "N/A",
        "town": "N/A",
        "state_zip": "N/A",
        "hours": "N/A",
        "website": "N/A",
        "facebook": "N/A",
        "bio": "N/A",
        "established": "N/A",
        "amazon_tag": "werewolf3788-20",
        "full_location": "N/A, N/A, N/A"
    },
    {
        "image_id": "N/A",
        "name": "Engle's Woodworking",
        "tier": "basic",
        "category": "N/A",
        "phone": "",
        "address": "N/A",
        "town": "N/A",
        "state_zip": "N/A",
        "hours": "N/A",
        "website": "N/A",
        "facebook": "N/A",
        "bio": "N/A",
        "established": "N/A",
        "amazon_tag": "werewolf3788-20",
        "full_location": "N/A, N/A, N/A"
    },
    {
        "image_id": "N/A",
        "name": "Erwin Insurance Agency",
        "tier": "basic",
        "category": "N/A",
        "phone": "",
        "address": "N/A",
        "town": "N/A",
        "state_zip": "N/A",
        "hours": "N/A",
        "website": "N/A",
        "facebook": "N/A",
        "bio": "N/A",
        "established": "https://www.facebook.com/ErwinInsuranceAgency/",
        "amazon_tag": "werewolf3788-20",
        "full_location": "N/A, N/A, N/A"
    },
    {
        "image_id": "N/A",
        "name": "Faith Lutheran Church",
        "tier": "basic",
        "category": "N/A",
        "phone": "",
        "address": "N/A",
        "town": "N/A",
        "state_zip": "N/A",
        "hours": "N/A",
        "website": "N/A",
        "facebook": "N/A",
        "bio": "N/A",
        "established": "N/A",
        "amazon_tag": "werewolf3788-20",
        "full_location": "N/A, N/A, N/A"
    },
    {
        "image_id": "N/A",
        "name": "Faith Tabernacle Church",
        "tier": "basic",
        "category": "N/A",
        "phone": "",
        "address": "N/A",
        "town": "N/A",
        "state_zip": "N/A",
        "hours": "N/A",
        "website": "N/A",
        "facebook": "N/A",
        "bio": "N/A",
        "established": "N/A",
        "amazon_tag": "werewolf3788-20",
        "full_location": "N/A, N/A, N/A"
    },
    {
        "image_id": "N/A",
        "name": "Family Vision Center",
        "tier": "basic",
        "category": "N/A",
        "phone": "",
        "address": "N/A",
        "town": "N/A",
        "state_zip": "N/A",
        "hours": "N/A",
        "website": "N/A",
        "facebook": "N/A",
        "bio": "N/A",
        "established": "https://www.facebook.com/FamilyVisionCenterFlora/",
        "amazon_tag": "werewolf3788-20",
        "full_location": "N/A, N/A, N/A"
    },
    {
        "image_id": "N/A",
        "name": "Farmers Bank and Trust",
        "tier": "basic",
        "category": "N/A",
        "phone": "",
        "address": "N/A",
        "town": "N/A",
        "state_zip": "N/A",
        "hours": "N/A",
        "website": "N/A",
        "facebook": "N/A",
        "bio": "N/A",
        "established": "N/A",
        "amazon_tag": "werewolf3788-20",
        "full_location": "N/A, N/A, N/A"
    },
    {
        "image_id": "N/A",
        "name": "First Baptist Church Flora",
        "tier": "basic",
        "category": "N/A",
        "phone": "",
        "address": "N/A",
        "town": "N/A",
        "state_zip": "N/A",
        "hours": "N/A",
        "website": "N/A",
        "facebook": "N/A",
        "bio": "N/A",
        "established": "https://www.facebook.com/FBCFlora/",
        "amazon_tag": "werewolf3788-20",
        "full_location": "N/A, N/A, N/A"
    },
    {
        "image_id": "N/A",
        "name": "First Christian Church",
        "tier": "basic",
        "category": "N/A",
        "phone": "",
        "address": "N/A",
        "town": "N/A",
        "state_zip": "N/A",
        "hours": "8a-12p",
        "website": "N/A",
        "facebook": "N/A",
        "bio": "N/A",
        "established": "N/A",
        "amazon_tag": "werewolf3788-20",
        "full_location": "N/A, N/A, N/A"
    },
    {
        "image_id": "N/A",
        "name": "First Church of God",
        "tier": "basic",
        "category": "N/A",
        "phone": "",
        "address": "N/A",
        "town": "N/A",
        "state_zip": "N/A",
        "hours": "N/A",
        "website": "N/A",
        "facebook": "N/A",
        "bio": "N/A",
        "established": "https://www.facebook.com/FirstChurchOfGodFlora/",
        "amazon_tag": "werewolf3788-20",
        "full_location": "N/A, N/A, N/A"
    },
    {
        "image_id": "N/A",
        "name": "First Community Bank",
        "tier": "basic",
        "category": "N/A",
        "phone": "",
        "address": "N/A",
        "town": "N/A",
        "state_zip": "N/A",
        "hours": "N/A",
        "website": "N/A",
        "facebook": "N/A",
        "bio": "N/A",
        "established": "N/A",
        "amazon_tag": "werewolf3788-20",
        "full_location": "N/A, N/A, N/A"
    },
    {
        "image_id": "N/A",
        "name": "First Southern Baptist",
        "tier": "basic",
        "category": "N/A",
        "phone": "",
        "address": "N/A",
        "town": "N/A",
        "state_zip": "N/A",
        "hours": "N/A",
        "website": "N/A",
        "facebook": "N/A",
        "bio": "N/A",
        "established": "https://www.facebook.com/FSBCFlora/",
        "amazon_tag": "werewolf3788-20",
        "full_location": "N/A, N/A, N/A"
    },
    {
        "image_id": "N/A",
        "name": "First Southern Baptist Church",
        "tier": "basic",
        "category": "N/A",
        "phone": "",
        "address": "N/A",
        "town": "N/A",
        "state_zip": "N/A",
        "hours": "N/A",
        "website": "N/A",
        "facebook": "N/A",
        "bio": "N/A",
        "established": "N/A",
        "amazon_tag": "werewolf3788-20",
        "full_location": "N/A, N/A, N/A"
    },
    {
        "image_id": "N/A",
        "name": "First United Methodist Flora",
        "tier": "basic",
        "category": "N/A",
        "phone": "",
        "address": "N/A",
        "town": "N/A",
        "state_zip": "N/A",
        "hours": "N/A",
        "website": "N/A",
        "facebook": "N/A",
        "bio": "N/A",
        "established": "https://www.facebook.com/FloraFUMC/",
        "amazon_tag": "werewolf3788-20",
        "full_location": "N/A, N/A, N/A"
    },
    {
        "image_id": "N/A",
        "name": "Firstline Garage Door Repair",
        "tier": "basic",
        "category": "N/A",
        "phone": "",
        "address": "N/A",
        "town": "N/A",
        "state_zip": "N/A",
        "hours": "N/A",
        "website": "N/A",
        "facebook": "N/A",
        "bio": "N/A",
        "established": "N/A",
        "amazon_tag": "werewolf3788-20",
        "full_location": "N/A, N/A, N/A"
    },
    {
        "image_id": "N/A",
        "name": "Flora 1st Methodist Church",
        "tier": "basic",
        "category": "N/A",
        "phone": "",
        "address": "N/A",
        "town": "N/A",
        "state_zip": "N/A",
        "hours": "N/A",
        "website": "N/A",
        "facebook": "N/A",
        "bio": "N/A",
        "established": "https://www.facebook.com/FloraFUMC/",
        "amazon_tag": "werewolf3788-20",
        "full_location": "N/A, N/A, N/A"
    },
    {
        "image_id": "N/A",
        "name": "Flora American Legion Post 14",
        "tier": "basic",
        "category": "N/A",
        "phone": "",
        "address": "N/A",
        "town": "N/A",
        "state_zip": "N/A",
        "hours": "N/A",
        "website": "N/A",
        "facebook": "N/A",
        "bio": "N/A",
        "established": "https://www.facebook.com/AmericanLegionPost14/",
        "amazon_tag": "werewolf3788-20",
        "full_location": "N/A, N/A, N/A"
    },
    {
        "image_id": "N/A",
        "name": "Flora Banking Co",
        "tier": "basic",
        "category": "N/A",
        "phone": "",
        "address": "N/A",
        "town": "N/A",
        "state_zip": "N/A",
        "hours": "N/A",
        "website": "N/A",
        "facebook": "N/A",
        "bio": "N/A",
        "established": "https://www.facebook.com/FloraBankingCompany/",
        "amazon_tag": "werewolf3788-20",
        "full_location": "N/A, N/A, N/A"
    },
    {
        "image_id": "N/A",
        "name": "Flora Booster Club",
        "tier": "basic",
        "category": "N/A",
        "phone": "",
        "address": "N/A",
        "town": "N/A",
        "state_zip": "N/A",
        "hours": "N/A",
        "website": "N/A",
        "facebook": "N/A",
        "bio": "N/A",
        "established": "https://www.facebook.com/FloraWolvesBoosters/",
        "amazon_tag": "werewolf3788-20",
        "full_location": "N/A, N/A, N/A"
    },
    {
        "image_id": "flora-calvary-baptist",
        "name": "Flora Calvary Baptist Church",
        "tier": "basic",
        "category": "N/A",
        "phone": "",
        "address": "N/A",
        "town": "N/A",
        "state_zip": "N/A",
        "hours": "N/A",
        "website": "N/A",
        "facebook": "N/A",
        "bio": "N/A",
        "established": "N/A",
        "amazon_tag": "werewolf3788-20",
        "full_location": "N/A, N/A, N/A"
    },
    {
        "image_id": "N/A",
        "name": "Flora Calvary Baptist Church",
        "tier": "basic",
        "category": "N/A",
        "phone": "",
        "address": "N/A",
        "town": "N/A",
        "state_zip": "N/A",
        "hours": "N/A",
        "website": "N/A",
        "facebook": "N/A",
        "bio": "N/A",
        "established": "N/A",
        "amazon_tag": "werewolf3788-20",
        "full_location": "N/A, N/A, N/A"
    },
    {
        "image_id": "N/A",
        "name": "Flora Chamber of Commerce",
        "tier": "basic",
        "category": "N/A",
        "phone": "",
        "address": "N/A",
        "town": "N/A",
        "state_zip": "N/A",
        "hours": "N/A",
        "website": "N/A",
        "facebook": "N/A",
        "bio": "N/A",
        "established": "https://www.facebook.com/FloraILChamber/",
        "amazon_tag": "werewolf3788-20",
        "full_location": "N/A, N/A, N/A"
    },
    {
        "image_id": "N/A",
        "name": "Flora Community Unit #35 Office",
        "tier": "basic",
        "category": "N/A",
        "phone": "",
        "address": "N/A",
        "town": "N/A",
        "state_zip": "N/A",
        "hours": "N/A",
        "website": "N/A",
        "facebook": "N/A",
        "bio": "N/A",
        "established": "https://www.facebook.com/FloraSchools/",
        "amazon_tag": "werewolf3788-20",
        "full_location": "N/A, N/A, N/A"
    },
    {
        "image_id": "N/A",
        "name": "Flora CUSD #35 Schools",
        "tier": "basic",
        "category": "N/A",
        "phone": "",
        "address": "N/A",
        "town": "N/A",
        "state_zip": "N/A",
        "hours": "N/A",
        "website": "N/A",
        "facebook": "N/A",
        "bio": "N/A",
        "established": "https://www.facebook.com/FloraSchools/",
        "amazon_tag": "werewolf3788-20",
        "full_location": "N/A, N/A, N/A"
    },
    {
        "image_id": "N/A",
        "name": "Flora Dental",
        "tier": "basic",
        "category": "N/A",
        "phone": "",
        "address": "N/A",
        "town": "N/A",
        "state_zip": "N/A",
        "hours": "N/A",
        "website": "N/A",
        "facebook": "N/A",
        "bio": "N/A",
        "established": "https://www.facebook.com/floradental/",
        "amazon_tag": "werewolf3788-20",
        "full_location": "N/A, N/A, N/A"
    },
    {
        "image_id": "N/A",
        "name": "Flora Elks Club #1659",
        "tier": "basic",
        "category": "N/A",
        "phone": "",
        "address": "N/A",
        "town": "N/A",
        "state_zip": "N/A",
        "hours": "N/A",
        "website": "N/A",
        "facebook": "N/A",
        "bio": "N/A",
        "established": "N/A",
        "amazon_tag": "werewolf3788-20",
        "full_location": "N/A, N/A, N/A"
    },
    {
        "image_id": "N/A",
        "name": "Flora Family Diner",
        "tier": "basic",
        "category": "N/A",
        "phone": "",
        "address": "N/A",
        "town": "N/A",
        "state_zip": "N/A",
        "hours": "N/A",
        "website": "N/A",
        "facebook": "N/A",
        "bio": "N/A",
        "established": "https://www.facebook.com/FloraFamilyDiner/",
        "amazon_tag": "werewolf3788-20",
        "full_location": "N/A, N/A, N/A"
    },
    {
        "image_id": "N/A",
        "name": "Flora Family Medicine",
        "tier": "basic",
        "category": "N/A",
        "phone": "",
        "address": "N/A",
        "town": "N/A",
        "state_zip": "N/A",
        "hours": "N/A",
        "website": "N/A",
        "facebook": "N/A",
        "bio": "N/A",
        "established": "N/A",
        "amazon_tag": "werewolf3788-20",
        "full_location": "N/A, N/A, N/A"
    },
    {
        "image_id": "N/A",
        "name": "Flora Fire Department",
        "tier": "basic",
        "category": "N/A",
        "phone": "",
        "address": "N/A",
        "town": "N/A",
        "state_zip": "N/A",
        "hours": "N/A",
        "website": "N/A",
        "facebook": "N/A",
        "bio": "N/A",
        "established": "https://www.facebook.com/FloraFireDept/",
        "amazon_tag": "werewolf3788-20",
        "full_location": "N/A, N/A, N/A"
    },
    {
        "image_id": "N/A",
        "name": "Flora First Christian Church",
        "tier": "basic",
        "category": "N/A",
        "phone": "",
        "address": "N/A",
        "town": "N/A",
        "state_zip": "N/A",
        "hours": "N/A",
        "website": "N/A",
        "facebook": "N/A",
        "bio": "N/A",
        "established": "https://www.facebook.com/fccflora/",
        "amazon_tag": "werewolf3788-20",
        "full_location": "N/A, N/A, N/A"
    },
    {
        "image_id": "N/A",
        "name": "Flora First Methodist Church",
        "tier": "basic",
        "category": "N/A",
        "phone": "",
        "address": "N/A",
        "town": "N/A",
        "state_zip": "N/A",
        "hours": "N/A",
        "website": "N/A",
        "facebook": "N/A",
        "bio": "N/A",
        "established": "N/A",
        "amazon_tag": "werewolf3788-20",
        "full_location": "N/A, N/A, N/A"
    },
    {
        "image_id": "N/A",
        "name": "Flora Golf and Country Club",
        "tier": "basic",
        "category": "N/A",
        "phone": "",
        "address": "N/A",
        "town": "N/A",
        "state_zip": "N/A",
        "hours": "N/A",
        "website": "N/A",
        "facebook": "N/A",
        "bio": "N/A",
        "established": "N/A",
        "amazon_tag": "werewolf3788-20",
        "full_location": "N/A, N/A, N/A"
    },
    {
        "image_id": "N/A",
        "name": "Flora Lions Club",
        "tier": "basic",
        "category": "N/A",
        "phone": "",
        "address": "N/A",
        "town": "N/A",
        "state_zip": "N/A",
        "hours": "N/A",
        "website": "N/A",
        "facebook": "N/A",
        "bio": "N/A",
        "established": "https://www.facebook.com/FloraLionsClub/",
        "amazon_tag": "werewolf3788-20",
        "full_location": "N/A, N/A, N/A"
    },
    {
        "image_id": "N/A",
        "name": "Flora Lions Club Charity",
        "tier": "basic",
        "category": "N/A",
        "phone": "",
        "address": "N/A",
        "town": "N/A",
        "state_zip": "N/A",
        "hours": "N/A",
        "website": "N/A",
        "facebook": "N/A",
        "bio": "N/A",
        "established": "https://www.facebook.com/FloraLionsClub/",
        "amazon_tag": "werewolf3788-20",
        "full_location": "N/A, N/A, N/A"
    },
    {
        "image_id": "N/A",
        "name": "Flora Little League",
        "tier": "basic",
        "category": "N/A",
        "phone": "",
        "address": "N/A",
        "town": "N/A",
        "state_zip": "N/A",
        "hours": "N/A",
        "website": "N/A",
        "facebook": "N/A",
        "bio": "N/A",
        "established": "https://www.facebook.com/FloraLittleLeague/",
        "amazon_tag": "werewolf3788-20",
        "full_location": "N/A, N/A, N/A"
    },
    {
        "image_id": "N/A",
        "name": "Flora Public Library",
        "tier": "basic",
        "category": "N/A",
        "phone": "",
        "address": "N/A",
        "town": "N/A",
        "state_zip": "N/A",
        "hours": "N/A",
        "website": "N/A",
        "facebook": "N/A",
        "bio": "N/A",
        "established": "N/A",
        "amazon_tag": "werewolf3788-20",
        "full_location": "N/A, N/A, N/A"
    },
    {
        "image_id": "N/A",
        "name": "Flora Public Library",
        "tier": "basic",
        "category": "N/A",
        "phone": "",
        "address": "N/A",
        "town": "N/A",
        "state_zip": "N/A",
        "hours": "N/A",
        "website": "N/A",
        "facebook": "N/A",
        "bio": "N/A",
        "established": "N/A",
        "amazon_tag": "werewolf3788-20",
        "full_location": "N/A, N/A, N/A"
    },
    {
        "image_id": "N/A",
        "name": "Flora Ready Mix",
        "tier": "basic",
        "category": "N/A",
        "phone": "",
        "address": "N/A",
        "town": "N/A",
        "state_zip": "N/A",
        "hours": "N/A",
        "website": "N/A",
        "facebook": "N/A",
        "bio": "N/A",
        "established": "N/A",
        "amazon_tag": "werewolf3788-20",
        "full_location": "N/A, N/A, N/A"
    },
    {
        "image_id": "N/A",
        "name": "Flora Rotary Club",
        "tier": "basic",
        "category": "N/A",
        "phone": "",
        "address": "N/A",
        "town": "N/A",
        "state_zip": "N/A",
        "hours": "N/A",
        "website": "N/A",
        "facebook": "N/A",
        "bio": "N/A",
        "established": "https://www.facebook.com/FloraRotaryClub/",
        "amazon_tag": "werewolf3788-20",
        "full_location": "N/A, N/A, N/A"
    },
    {
        "image_id": "N/A",
        "name": "Flora Wolves Football Booster",
        "tier": "basic",
        "category": "N/A",
        "phone": "",
        "address": "N/A",
        "town": "N/A",
        "state_zip": "N/A",
        "hours": "N/A",
        "website": "N/A",
        "facebook": "N/A",
        "bio": "N/A",
        "established": "https://www.facebook.com/FloraWolvesFootball/",
        "amazon_tag": "werewolf3788-20",
        "full_location": "N/A, N/A, N/A"
    },
    {
        "image_id": "N/A",
        "name": "Frank & Bright Funeral Home",
        "tier": "basic",
        "category": "N/A",
        "phone": "",
        "address": "N/A",
        "town": "N/A",
        "state_zip": "N/A",
        "hours": "N/A",
        "website": "N/A",
        "facebook": "N/A",
        "bio": "N/A",
        "established": "https://www.facebook.com/FrankAndBrightFuneralHome/",
        "amazon_tag": "werewolf3788-20",
        "full_location": "N/A, N/A, N/A"
    },
    {
        "image_id": "N/A",
        "name": "Full Armor Academy",
        "tier": "basic",
        "category": "N/A",
        "phone": "",
        "address": "N/A",
        "town": "N/A",
        "state_zip": "N/A",
        "hours": "N/A",
        "website": "N/A",
        "facebook": "N/A",
        "bio": "N/A",
        "established": "https://www.facebook.com/FullArmorAcademy/",
        "amazon_tag": "werewolf3788-20",
        "full_location": "N/A, N/A, N/A"
    },
    {
        "image_id": "N/A",
        "name": "Full Armor Christian Academy",
        "tier": "basic",
        "category": "N/A",
        "phone": "",
        "address": "N/A",
        "town": "N/A",
        "state_zip": "N/A",
        "hours": "N/A",
        "website": "N/A",
        "facebook": "N/A",
        "bio": "N/A",
        "established": "https://www.facebook.com/FullArmorAcademy/",
        "amazon_tag": "werewolf3788-20",
        "full_location": "N/A, N/A, N/A"
    },
    {
        "image_id": "N/A",
        "name": "Full Armor Christian Academy",
        "tier": "basic",
        "category": "N/A",
        "phone": "",
        "address": "N/A",
        "town": "N/A",
        "state_zip": "N/A",
        "hours": "N/A",
        "website": "N/A",
        "facebook": "N/A",
        "bio": "N/A",
        "established": "https://www.facebook.com/FullArmorAcademy/",
        "amazon_tag": "werewolf3788-20",
        "full_location": "N/A, N/A, N/A"
    },
    {
        "image_id": "N/A",
        "name": "Full Armor Christian Academy Clay County",
        "tier": "basic",
        "category": "N/A",
        "phone": "",
        "address": "N/A",
        "town": "N/A",
        "state_zip": "N/A",
        "hours": "N/A",
        "website": "N/A",
        "facebook": "N/A",
        "bio": "N/A",
        "established": "N/A",
        "amazon_tag": "werewolf3788-20",
        "full_location": "N/A, N/A, N/A"
    },
    {
        "image_id": "N/A",
        "name": "G.A. Rich & Sons, Inc.",
        "tier": "basic",
        "category": "N/A",
        "phone": "",
        "address": "N/A",
        "town": "N/A",
        "state_zip": "N/A",
        "hours": "N/A",
        "website": "N/A",
        "facebook": "N/A",
        "bio": "N/A",
        "established": "N/A",
        "amazon_tag": "werewolf3788-20",
        "full_location": "N/A, N/A, N/A"
    },
    {
        "image_id": "N/A",
        "name": "Gail's Cafe",
        "tier": "basic",
        "category": "N/A",
        "phone": "",
        "address": "N/A",
        "town": "N/A",
        "state_zip": "N/A",
        "hours": "N/A",
        "website": "N/A",
        "facebook": "N/A",
        "bio": "N/A",
        "established": "N/A",
        "amazon_tag": "werewolf3788-20",
        "full_location": "N/A, N/A, N/A"
    },
    {
        "image_id": "N/A",
        "name": "Gardner's Restaurant",
        "tier": "basic",
        "category": "N/A",
        "phone": "",
        "address": "N/A",
        "town": "N/A",
        "state_zip": "N/A",
        "hours": "N/A",
        "website": "N/A",
        "facebook": "N/A",
        "bio": "N/A",
        "established": "https://www.facebook.com/GardnersRestaurant/",
        "amazon_tag": "werewolf3788-20",
        "full_location": "N/A, N/A, N/A"
    },
    {
        "image_id": "N/A",
        "name": "Gary V Cooper Farms",
        "tier": "basic",
        "category": "N/A",
        "phone": "",
        "address": "N/A",
        "town": "N/A",
        "state_zip": "N/A",
        "hours": "N/A",
        "website": "N/A",
        "facebook": "N/A",
        "bio": "N/A",
        "established": "N/A",
        "amazon_tag": "werewolf3788-20",
        "full_location": "N/A, N/A, N/A"
    },
    {
        "image_id": "N/A",
        "name": "Gatsby's Gaming",
        "tier": "basic",
        "category": "N/A",
        "phone": "",
        "address": "N/A",
        "town": "N/A",
        "state_zip": "N/A",
        "hours": "N/A",
        "website": "N/A",
        "facebook": "N/A",
        "bio": "N/A",
        "established": "N/A",
        "amazon_tag": "werewolf3788-20",
        "full_location": "N/A, N/A, N/A"
    },
    {
        "image_id": "N/A",
        "name": "Glamour Farms",
        "tier": "basic",
        "category": "N/A",
        "phone": "",
        "address": "N/A",
        "town": "N/A",
        "state_zip": "N/A",
        "hours": "N/A",
        "website": "N/A",
        "facebook": "N/A",
        "bio": "N/A",
        "established": "N/A",
        "amazon_tag": "werewolf3788-20",
        "full_location": "N/A, N/A, N/A"
    },
    {
        "image_id": "N/A",
        "name": "Glamour Farms Boutique",
        "tier": "basic",
        "category": "N/A",
        "phone": "",
        "address": "N/A",
        "town": "N/A",
        "state_zip": "N/A",
        "hours": "N/A",
        "website": "N/A",
        "facebook": "N/A",
        "bio": "N/A",
        "established": "https://www.facebook.com/glamourfarms/",
        "amazon_tag": "werewolf3788-20",
        "full_location": "N/A, N/A, N/A"
    },
    {
        "image_id": "N/A",
        "name": "Glory Days",
        "tier": "basic",
        "category": "N/A",
        "phone": "",
        "address": "N/A",
        "town": "N/A",
        "state_zip": "N/A",
        "hours": "N/A",
        "website": "N/A",
        "facebook": "N/A",
        "bio": "N/A",
        "established": "https://www.facebook.com/GloryDaysFlora/",
        "amazon_tag": "werewolf3788-20",
        "full_location": "N/A, N/A, N/A"
    },
    {
        "image_id": "N/A",
        "name": "Glory Days",
        "tier": "basic",
        "category": "N/A",
        "phone": "",
        "address": "N/A",
        "town": "N/A",
        "state_zip": "N/A",
        "hours": "N/A",
        "website": "N/A",
        "facebook": "N/A",
        "bio": "N/A",
        "established": "https://www.facebook.com/GloryDaysFlora/",
        "amazon_tag": "werewolf3788-20",
        "full_location": "N/A, N/A, N/A"
    },
    {
        "image_id": "N/A",
        "name": "Goley Insulation",
        "tier": "basic",
        "category": "N/A",
        "phone": "",
        "address": "N/A",
        "town": "N/A",
        "state_zip": "N/A",
        "hours": "N/A",
        "website": "N/A",
        "facebook": "N/A",
        "bio": "N/A",
        "established": "N/A",
        "amazon_tag": "werewolf3788-20",
        "full_location": "N/A, N/A, N/A"
    },
    {
        "image_id": "N/A",
        "name": "Goodman Oil",
        "tier": "basic",
        "category": "N/A",
        "phone": "",
        "address": "N/A",
        "town": "N/A",
        "state_zip": "N/A",
        "hours": "N/A",
        "website": "N/A",
        "facebook": "N/A",
        "bio": "N/A",
        "established": "N/A",
        "amazon_tag": "werewolf3788-20",
        "full_location": "N/A, N/A, N/A"
    },
    {
        "image_id": "N/A",
        "name": "Greendale Community Center",
        "tier": "basic",
        "category": "N/A",
        "phone": "",
        "address": "N/A",
        "town": "N/A",
        "state_zip": "N/A",
        "hours": "N/A",
        "website": "N/A",
        "facebook": "N/A",
        "bio": "N/A",
        "established": "N/A",
        "amazon_tag": "werewolf3788-20",
        "full_location": "N/A, N/A, N/A"
    },
    {
        "image_id": "N/A",
        "name": "Greenwood Pest Control",
        "tier": "basic",
        "category": "N/A",
        "phone": "",
        "address": "N/A",
        "town": "N/A",
        "state_zip": "N/A",
        "hours": "N/A",
        "website": "N/A",
        "facebook": "N/A",
        "bio": "N/A",
        "established": "N/A",
        "amazon_tag": "werewolf3788-20",
        "full_location": "N/A, N/A, N/A"
    },
    {
        "image_id": "N/A",
        "name": "Gregory C Kepley",
        "tier": "basic",
        "category": "N/A",
        "phone": "",
        "address": "N/A",
        "town": "N/A",
        "state_zip": "N/A",
        "hours": "N/A",
        "website": "N/A",
        "facebook": "N/A",
        "bio": "N/A",
        "established": "N/A",
        "amazon_tag": "werewolf3788-20",
        "full_location": "N/A, N/A, N/A"
    },
    {
        "image_id": "N/A",
        "name": "H&R Block Flora",
        "tier": "basic",
        "category": "N/A",
        "phone": "",
        "address": "N/A",
        "town": "N/A",
        "state_zip": "N/A",
        "hours": "N/A",
        "website": "N/A",
        "facebook": "N/A",
        "bio": "N/A",
        "established": "N/A",
        "amazon_tag": "werewolf3788-20",
        "full_location": "N/A, N/A, N/A"
    },
    {
        "image_id": "hanging-rock-auto-repair",
        "name": "Hanging Rock Auto",
        "tier": "basic",
        "category": "N/A",
        "phone": "",
        "address": "N/A",
        "town": "N/A",
        "state_zip": "N/A",
        "hours": "N/A",
        "website": "N/A",
        "facebook": "N/A",
        "bio": "N/A",
        "established": "N/A",
        "amazon_tag": "werewolf3788-20",
        "full_location": "N/A, N/A, N/A"
    },
    {
        "image_id": "N/A",
        "name": "Hanging Rock Auto",
        "tier": "basic",
        "category": "N/A",
        "phone": "",
        "address": "N/A",
        "town": "N/A",
        "state_zip": "N/A",
        "hours": "N/A",
        "website": "N/A",
        "facebook": "N/A",
        "bio": "N/A",
        "established": "N/A",
        "amazon_tag": "werewolf3788-20",
        "full_location": "N/A, N/A, N/A"
    },
    {
        "image_id": "N/A",
        "name": "Harr's Ace Hardware",
        "tier": "basic",
        "category": "N/A",
        "phone": "",
        "address": "N/A",
        "town": "N/A",
        "state_zip": "N/A",
        "hours": "N/A",
        "website": "N/A",
        "facebook": "N/A",
        "bio": "N/A",
        "established": "N/A",
        "amazon_tag": "werewolf3788-20",
        "full_location": "N/A, N/A, N/A"
    },
    {
        "image_id": "N/A",
        "name": "Harter Township Hall",
        "tier": "basic",
        "category": "N/A",
        "phone": "",
        "address": "N/A",
        "town": "N/A",
        "state_zip": "N/A",
        "hours": "N/A",
        "website": "N/A",
        "facebook": "N/A",
        "bio": "N/A",
        "established": "N/A",
        "amazon_tag": "werewolf3788-20",
        "full_location": "N/A, N/A, N/A"
    },
    {
        "image_id": "N/A",
        "name": "Harvel Farms Inc",
        "tier": "basic",
        "category": "N/A",
        "phone": "",
        "address": "N/A",
        "town": "N/A",
        "state_zip": "N/A",
        "hours": "N/A",
        "website": "N/A",
        "facebook": "N/A",
        "bio": "N/A",
        "established": "N/A",
        "amazon_tag": "werewolf3788-20",
        "full_location": "N/A, N/A, N/A"
    },
    {
        "image_id": "N/A",
        "name": "Hein Construction",
        "tier": "basic",
        "category": "N/A",
        "phone": "",
        "address": "N/A",
        "town": "N/A",
        "state_zip": "N/A",
        "hours": "N/A",
        "website": "N/A",
        "facebook": "N/A",
        "bio": "N/A",
        "established": "N/A",
        "amazon_tag": "werewolf3788-20",
        "full_location": "N/A, N/A, N/A"
    },
    {
        "image_id": "N/A",
        "name": "Hella Electronics Corp",
        "tier": "basic",
        "category": "N/A",
        "phone": "N/A",
        "address": "Flora, IL 62839",
        "town": "N/A",
        "state_zip": "Agriculture",
        "hours": "N/A",
        "website": "N/A",
        "facebook": "N/A",
        "bio": "N/A",
        "established": "N/A",
        "amazon_tag": "werewolf3788-20",
        "full_location": "Flora, IL 62839, N/A, Agriculture"
    },
    {
        "image_id": "N/A",
        "name": "Henry Edd Kincaid Farming",
        "tier": "basic",
        "category": "N/A",
        "phone": "",
        "address": "N/A",
        "town": "N/A",
        "state_zip": "N/A",
        "hours": "N/A",
        "website": "N/A",
        "facebook": "N/A",
        "bio": "N/A",
        "established": "N/A",
        "amazon_tag": "werewolf3788-20",
        "full_location": "N/A, N/A, N/A"
    },
    {
        "image_id": "N/A",
        "name": "Heritage Woods of Flora",
        "tier": "basic",
        "category": "N/A",
        "phone": "",
        "address": "N/A",
        "town": "N/A",
        "state_zip": "N/A",
        "hours": "N/A",
        "website": "N/A",
        "facebook": "N/A",
        "bio": "N/A",
        "established": "N/A",
        "amazon_tag": "werewolf3788-20",
        "full_location": "N/A, N/A, N/A"
    },
    {
        "image_id": "N/A",
        "name": "Hibbitt's Construction",
        "tier": "basic",
        "category": "N/A",
        "phone": "",
        "address": "N/A",
        "town": "N/A",
        "state_zip": "N/A",
        "hours": "N/A",
        "website": "N/A",
        "facebook": "N/A",
        "bio": "N/A",
        "established": "N/A",
        "amazon_tag": "werewolf3788-20",
        "full_location": "N/A, N/A, N/A"
    },
    {
        "image_id": "N/A",
        "name": "Hickory Hill Lounge",
        "tier": "basic",
        "category": "N/A",
        "phone": "",
        "address": "N/A",
        "town": "N/A",
        "state_zip": "N/A",
        "hours": "N/A",
        "website": "N/A",
        "facebook": "N/A",
        "bio": "N/A",
        "established": "https://www.facebook.com/HickoryHillLounge/",
        "amazon_tag": "werewolf3788-20",
        "full_location": "N/A, N/A, N/A"
    },
    {
        "image_id": "N/A",
        "name": "Holy Cross Catholic Cemetery",
        "tier": "basic",
        "category": "N/A",
        "phone": "",
        "address": "N/A",
        "town": "N/A",
        "state_zip": "N/A",
        "hours": "N/A",
        "website": "N/A",
        "facebook": "N/A",
        "bio": "N/A",
        "established": "N/A",
        "amazon_tag": "werewolf3788-20",
        "full_location": "N/A, N/A, N/A"
    },
    {
        "image_id": "N/A",
        "name": "Holy Cross Catholic Church",
        "tier": "basic",
        "category": "N/A",
        "phone": "",
        "address": "N/A",
        "town": "N/A",
        "state_zip": "N/A",
        "hours": "N/A",
        "website": "N/A",
        "facebook": "N/A",
        "bio": "N/A",
        "established": "N/A",
        "amazon_tag": "werewolf3788-20",
        "full_location": "N/A, N/A, N/A"
    }
]